[{"Zone":{"id":2,"created_at":"2020-01-28 15:41:55","updated_at":"2020-01-28 16:35:00","name":"ZONA DE PLANIFICACIÓN 1 - NORTE: CARCHI: Tulcán","address":"Guayaquil N39-008 y Av. Manabí, Edificio Cámara de Comercio piso 2","acronym":"CZ1","phone_number":"022960046","location_latitude":"-0.5643679","location_longitude":"-81.6439987","email":"carlos.orozco@turismo.gob.ec","id_coordinator":67,"ubication_id":78},"attach":[]},{"Zone":{"id":3,"created_at":"2020-01-28 15:41:55","updated_at":"2020-01-28 16:35:00","name":"ZONA DE PLANIFICACIÓN 1 - NORTE: IMBABURA: Ibarra","address":"Sucre 1472 y Av. Teodoro Gómez","acronym":"CZ1","phone_number":"062955711","location_latitude":"0.034399","location_longitude":"-78.603413","email":"carlos.orozco@turismo.gob.ec","id_coordinator":67,"ubication_id":121},"attach":[]},{"Zone":{"id":1,"created_at":"2020-01-28 15:41:55","updated_at":"2020-01-28 16:35:00","name":"ZONA DE PLANIFICACIÓN 1 - NORTE: ESMERALDAS: Esmeraldas CZ1","address":"Av. Del Pacífico, Malecón de Las Palmas (Frente Patio Comidas)","acronym":"CZ1","phone_number":"062011446","location_latitude":"0.9907075","location_longitude":"-79.6845587","email":"carlos.orozco@turismo.gob.ec","id_coordinator":67,"ubication_id":2},"attach":[]},{"Zone":{"id":4,"created_at":"2020-01-28 15:41:55","updated_at":"2020-01-28 16:35:00","name":"ZONA DE PLANIFICACIÓN 1 - NORTE: IMBABURA: Ibarra","address":"Sucre 1472 y Av. Teodoro Gómez","acronym":"CZ1","phone_number":"062958547","location_latitude":"0.034399","location_longitude":"-78.603413","email":"carlos.orozco@turismo.gob.ec","id_coordinator":67,"ubication_id":121},"attach":[]},{"Zone":{"id":5,"created_at":"2020-01-28 15:41:55","updated_at":"2020-01-28 16:35:00","name":"ZONA DE PLANIFICACIÓN 1 - NORTE: IMBABURA: Ibarra","address":"Sucre 1472 y Av. Teodoro Gómez","acronym":"CZ1","phone_number":"062958759","location_latitude":"0.034399","location_longitude":"-78.603413","email":"carlos.orozco@turismo.gob.ec","id_coordinator":67,"ubication_id":121},"attach":[]},{"Zone":{"id":6,"created_at":"2020-01-28 15:41:55","updated_at":"2020-01-28 16:35:00","name":"ZONA DE PLANIFICACIÓN 1 - NORTE: SUCUMBÍOS: Nueva Loja","address":"Centro de Atención Ciudadana Av. Monseñor Gonzalo López Marañón y Av. Circunvalación, Oficina # 18, piso 1°","acronym":"CZ1","phone_number":"062991914","location_latitude":"0.0889231","location_longitude":"-76.8919444","email":"carlos.orozco@turismo.gob.ec","id_coordinator":67,"ubication_id":181},"attach":[]},{"Zone":{"id":7,"created_at":"2020-01-28 15:41:55","updated_at":"2020-01-28 16:35:00","name":"ZONA DE PLANIFICACIÓN 2 - CENTRO NORTE: PICHINCHA: Quito CZ2","address":"Av. Gran Colombia y Briceño Edificio La Licuadora, Mezanine","acronym":"CZ2","phone_number":"023999333","location_latitude":"-0.2167839","location_longitude":"-78.5068889","email":"carlos.orozco@turismo.gob.ec","id_coordinator":67,"ubication_id":225},"attach":[]},{"Zone":{"id":9,"created_at":"2020-01-28 15:41:55","updated_at":"2020-01-28 16:35:00","name":"ZONA DE PLANIFICACIÓN 2 - CENTRO NORTE: NAPO: Tena","address":"César Augusto Rueda sector El Balneario - Junto Hotel YUTZOS","acronym":"CZ2","phone_number":"062886536","location_latitude":"-0.997982","location_longitude":"-77.813876","email":"carlos.orozco@turismo.gob.ec","id_coordinator":67,"ubication_id":332},"attach":[]},{"Zone":{"id":8,"created_at":"2020-01-28 15:41:55","updated_at":"2020-01-28 16:35:00","name":"ZONA DE PLANIFICACIÓN 2 - CENTRO NORTE: ORELLANA: Orellana","address":"Juan Montalvo entre 9 de Octubre y 6 de Diciembre( junto al archivo del Concejo de la Judicatura de Orellana)","acronym":"CZ2","phone_number":"062881583","location_latitude":"-0.4724257","location_longitude":"-76.987877","email":"carlos.orozco@turismo.gob.ec","id_coordinator":67,"ubication_id":363},"attach":[]},{"Zone":{"id":10,"created_at":"2020-01-28 15:41:55","updated_at":"2020-01-28 16:35:00","name":"ZONA DE PLANIFICACIÓN 3 - CENTRO: CHIMBORAZO: Riobamba","address":"Av. Daniel León Borja y Jacinto González, esquina. Edificio Zurich, 3er piso","acronym":"CZ3","phone_number":"032946682","location_latitude":"-1.662704","location_longitude":"-78.6637881","email":"maria.mora@turismo.gob.ec","id_coordinator":69,"ubication_id":458},"attach":[]},{"Zone":{"id":11,"created_at":"2020-01-28 15:41:55","updated_at":"2020-01-28 16:35:00","name":"ZONA DE PLANIFICACIÓN 3 - CENTRO: COTOPAXI: Latacunga CZ3","address":"Marqués de Maenza y Quito, Edificio Centro de Atención Ciudadana, El Rosal","acronym":"CZ3","phone_number":"032245700","location_latitude":"-0.4570763","location_longitude":"-79.0027681","email":"maria.mora@turismo.gob.ec","id_coordinator":69,"ubication_id":402},"attach":[]},{"Zone":{"id":12,"created_at":"2020-01-28 15:41:55","updated_at":"2020-01-28 16:35:00","name":"ZONA DE PLANIFICACIÓN 3 - CENTRO: TUNGURAHUA: Ambato","address":"Guayaquil 01-08 y Rocafuerte junto Hotel Ambato","acronym":"CZ3","phone_number":"032821800","location_latitude":"-1.2428482","location_longitude":"-78.6338993","email":"maria.mora@turismo.gob.ec","id_coordinator":69,"ubication_id":558},"attach":[]},{"Zone":{"id":13,"created_at":"2020-01-28 15:41:55","updated_at":"2020-01-28 16:35:00","name":"ZONA DE PLANIFICACIÓN 3 - CENTRO: PASTAZA: Pastaza","address":"Km. 2 ½ vía al Tena, Universidad Estatal Amazónica","acronym":"CZ3","phone_number":"032740123","location_latitude":"-1.4689575","location_longitude":"-77.9981836","email":"maria.mora@turismo.gob.ec","id_coordinator":69,"ubication_id":533},"attach":[]},{"Zone":{"id":14,"created_at":"2020-01-28 15:41:55","updated_at":"2020-01-28 16:35:00","name":"ZONA DE PLANIFICACIÓN 4 - PACÍFICO: MANABÍ: Portoviejo","address":"Los Nardos y Av. 15 de Abril detrás del ECU 911 Edificio Centro de Atención Ciudadana, Piso 3","acronym":"CZ4","phone_number":"053043711","location_latitude":"-1.0714614","location_longitude":"-80.4483467","email":"felipe.alava@turismo.gob.ec","id_coordinator":68,"ubication_id":635},"attach":[]},{"Zone":{"id":15,"created_at":"2020-01-28 15:41:55","updated_at":"2020-01-28 16:35:00","name":"ZONA DE PLANIFICACIÓN 4 - PACÍFICO: MANABÍ: Portoviejo","address":"Los Nardos y Av. 15 de Abril detrás del ECU 911 Edificio Centro de Atención Ciudadana, Piso 3","acronym":"CZ4","phone_number":"053043734","location_latitude":"-1.0714614","location_longitude":"-80.4483467","email":"felipe.alava@turismo.gob.ec","id_coordinator":68,"ubication_id":635},"attach":[]},{"Zone":{"id":16,"created_at":"2020-01-28 15:41:55","updated_at":"2020-01-28 16:35:00","name":"ZONA DE PLANIFICACIÓN 4 - PACÍFICO: SANTO DOMINGO DE LOS TSÁCHILAS: Santo Domingo CZ4","address":"Av. Esmeraldas y Monseñor Emilio Lorenzo Sthele, Edificio Santo Domingo Plaza, piso 3 Of. 301","acronym":"CZ4","phone_number":"022745726","location_latitude":"-0.2385865","location_longitude":"-79.1706035","email":"felipe.alava@turismo.gob.ec","id_coordinator":68,"ubication_id":765},"attach":[]},{"Zone":{"id":17,"created_at":"2020-01-28 15:41:55","updated_at":"2020-01-28 16:35:00","name":"ZONA DE PLANIFICACIÓN 5 - LITORAL: GUAYAS.- Guayaquil CZ5","address":"Av. Francisco de Orellana y Justino Cornejo, Edificio del Gobierno Zonal de Guayaquil, piso 8","acronym":"CZ5","phone_number":"042068508","location_latitude":"-2.1625565","location_longitude":"-79.9006582","email":"felipe.alava@turismo.gob.ec","id_coordinator":68,"ubication_id":914},"attach":[]},{"Zone":{"id":18,"created_at":"2020-01-28 15:41:55","updated_at":"2020-01-28 16:35:00","name":"ZONA DE PLANIFICACIÓN 5 - LITORAL: LOS RÍOS: Babahoyo","address":"Av. 10 de Agosto entre Eloy Alfaro y Rocafuerte Edificio Cooperativa Policía Nacional, piso 2","acronym":"CZ5","phone_number":"052739322","location_latitude":"-17992065","location_longitude":"-79.5353548","email":"felipe.alava@turismo.gob.ec","id_coordinator":68,"ubication_id":876},"attach":[]},{"Zone":{"id":19,"created_at":"2020-01-28 15:41:55","updated_at":"2020-01-28 16:35:00","name":"ZONA DE PLANIFICACIÓN 5 - LITORAL: SANTA ELENA: Salinas","address":"Edificio Centro de Atención Ciudadana Av. Carlos Espinoza Larrea y Calle 5, Planta Alta","acronym":"CZ5","phone_number":"043728904","location_latitude":"-2.2165826","location_longitude":"-80.9506297","email":"felipe.alava@turismo.gob.ec","id_coordinator":68,"ubication_id":855},"attach":[]},{"Zone":{"id":20,"created_at":"2020-01-28 15:41:55","updated_at":"2020-01-28 16:35:00","name":"ZONA DE PLANIFICACIÓN 5 - LITORAL: BOLÍVAR: Guaranda","address":"Sucre y García Moreno Edificio Gobernación Planta Baja","acronym":"CZ5","phone_number":"032551249","location_latitude":"-1.5919343","location_longitude":"-79.0041974","email":"felipe.alava@turismo.gob.ec","id_coordinator":68,"ubication_id":876},"attach":[]},{"Zone":{"id":21,"created_at":"2020-01-28 15:41:55","updated_at":"2020-01-28 16:35:00","name":"ZONA DE PLANIFICACIÓN 6 - AUSTRO: AZUAY: Cuenca CZ6","address":"Simón Bolívar y Juan Montalvo. Edificio Casa del Coco, Piso 1","acronym":"CZ6","phone_number":"072838209","location_latitude":"-2.8958418","location_longitude":"-79.0109051","email":"maria.mora@turismo.gob.ec","id_coordinator":69,"ubication_id":1037},"attach":[]},{"Zone":{"id":22,"created_at":"2020-01-28 15:41:55","updated_at":"2020-01-28 16:35:00","name":"ZONA DE PLANIFICACIÓN 6 - AUSTRO: CAÑAR: Azogues","address":"Av. 16 de Abril y Babahoyo","acronym":"CZ6","phone_number":"072838209","location_latitude":"-2.7390102","location_longitude":"-78.8545729","email":"maria.mora@turismo.gob.ec","id_coordinator":69,"ubication_id":1144},"attach":[]},{"Zone":{"id":23,"created_at":"2020-01-28 15:41:55","updated_at":"2020-01-28 16:35:00","name":"ZONA DE PLANIFICACIÓN 6 - AUSTRO: MORONA SANTIAGO: Morona","address":"Morona.- Bolívar entre Amazonas y Soasti","acronym":"CZ6","phone_number":"072701480","location_latitude":"-2.3042039","location_longitude":"-78.1221868","email":"maria.mora@turismo.gob.ec","id_coordinator":69,"ubication_id":1190},"attach":[]},{"Zone":{"id":24,"created_at":"2020-01-28 15:41:55","updated_at":"2020-01-28 16:35:00","name":"ZONA DE PLANIFICACIÓN 7- SUR: LOJA: Loja CZ7","address":"Sucre 191-31 y Quito esquina Edificio Patrimonio Cultural","acronym":"CZ7","phone_number":"072572964","location_latitude":"-2.0132704","location_longitude":"-80.9999755","email":"maria.mora@turismo.gob.ec","id_coordinator":69,"ubication_id":1368},"attach":[]},{"Zone":{"id":25,"created_at":"2020-01-28 15:41:55","updated_at":"2020-01-28 16:35:00","name":"ZONA DE PLANIFICACIÓN 7- SUR: EL ORO: Machala","address":"Rocafuerte 722 entre Junín y Tarqui","acronym":"CZ7","phone_number":"072968480","location_latitude":"-3.2612084","location_longitude":"-79.9597567","email":"maria.mora@turismo.gob.ec","id_coordinator":69,"ubication_id":1264},"attach":[]},{"Zone":{"id":26,"created_at":"2020-01-28 15:41:55","updated_at":"2020-01-28 16:35:00","name":"ZONA DE PLANIFICACIÓN 7- SUR: ZAMORA CHINCHIPE: Zamora","address":"José Luis Tamayo y Diego de Vaca Edificio De la Gobernación Piso 1","acronym":"CZ7","phone_number":"072606466","location_latitude":"-4.0665816","location_longitude":"-78.958884","email":"maria.mora@turismo.gob.ec","id_coordinator":69,"ubication_id":1493},"attach":[]},{"Zone":{"id":27,"created_at":"2020-01-28 15:41:55","updated_at":"2020-01-28 16:35:00","name":"ZONA DE PLANIFICACIÓN INSULAR: Santa Cruz CZI","address":"Av. Charles Darwin y 12 de Febrero Nro. 399. Edificio CAPTURGAL piso 1 y 2","acronym":"CZI","phone_number":"052527135","location_latitude":"-0.7457459","location_longitude":"-90.314065","email":"monica.paez@turismo.gob.ec","id_coordinator":70,"ubication_id":1544},"attach":[]},{"Zone":{"id":28,"created_at":"2020-01-28 15:41:55","updated_at":"2020-01-28 16:35:00","name":"ZONA DE PLANIFICACIÓN INSULAR: SANTA CRUZ","address":"Av. Charles Darwin y 12 de Febrero Nro. 399. Edificio CAPTURGAL piso 1 y 2","acronym":"CZI","phone_number":"052526174","location_latitude":"-0.7457459","location_longitude":"-90.314065","email":"monica.paez@turismo.gob.ec","id_coordinator":70,"ubication_id":1544},"attach":[]},{"Zone":{"id":29,"created_at":"2020-01-28 15:41:55","updated_at":"2020-01-28 16:35:00","name":"ZONA DE PLANIFICACIÓN INSULAR: ISABELA","address":"Av. Antonio Gil y Petreles","acronym":"CZI","phone_number":"052529132","location_latitude":"-0.9567744","location_longitude":"-90.9699336","email":"monica.paez@turismo.gob.ec","id_coordinator":70,"ubication_id":1544},"attach":[]},{"Zone":{"id":30,"created_at":"2020-01-28 15:41:55","updated_at":"2020-01-28 16:35:00","name":"ZONA DE PLANIFICACIÓN INSULAR: SAN CRISTÓBAL","address":"Av. Alsacio Northia y José Vallejo Esquina","acronym":"CZI","phone_number":"052520704","location_latitude":"-0.8204504","location_longitude":"-89.714852","email":"monica.paez@turismo.gob.ec","id_coordinator":70,"ubication_id":1544},"attach":[]},{"Zone":{"id":31,"created_at":"2020-01-28 15:41:55","updated_at":"2020-01-28 16:35:00","name":"ZONA DE PLANIFICACIÓN 5 - LITORAL: GUAYAS.- Guayaquil CZ5","address":"Av. Francisco de Orellana y Justino Cornejo, Edificio del Gobierno Zonal de Guayaquil, piso 8","acronym":"CZ5","phone_number":"042068508","location_latitude":"-2.1625565","location_longitude":"-79.9006582","email":"felipe.alava@turismo.gob.ec","id_coordinator":68,"ubication_id":788},"attach":[]}]