[{"Ubication":{"id":1035,"created_at":"2020-02-10 14:52:58","updated_at":"2020-02-13 11:43:41","name":"ISIDRO AYORA","code":"05092850","father_code":"050928","gmap_reference_latitude":"-1.8826147","gmap_reference_longitude":"-80.1537609","acronym":""},"attach":[]},{"Ubication":{"id":1018,"created_at":"2020-02-10 14:52:58","updated_at":"2020-02-13 11:43:41","name":"GENERAL PEDRO J. MONTERO (BOLICHE)","code":"05092053","father_code":"050920","gmap_reference_latitude":"-2.2675939","gmap_reference_longitude":"-79.6454192","acronym":""},"attach":[]},{"Ubication":{"id":1019,"created_at":"2020-02-10 14:52:58","updated_at":"2020-02-13 11:43:41","name":"YAGUACHI VIEJO (CONE)","code":"05092055","father_code":"050920","gmap_reference_latitude":"-2.1827916","gmap_reference_longitude":"-79.8055248","acronym":""},"attach":[]},{"Ubication":{"id":1020,"created_at":"2020-02-10 14:52:58","updated_at":"2020-02-13 11:43:41","name":"VIRGEN DE FATIMA","code":"05092056","father_code":"050920","gmap_reference_latitude":"-2.2448537","gmap_reference_longitude":"-79.6518873","acronym":""},"attach":[]},{"Ubication":{"id":1014,"created_at":"2020-02-10 14:52:58","updated_at":"2020-02-13 11:43:41","name":"LA VICTORIA (ÑAUZA)","code":"05091952","father_code":"050919","gmap_reference_latitude":"-1.8472493","gmap_reference_longitude":"-79.8656283","acronym":""},"attach":[]},{"Ubication":{"id":1015,"created_at":"2020-02-10 14:52:58","updated_at":"2020-02-13 11:43:41","name":"JUNQUILLAL","code":"05091953","father_code":"050919","gmap_reference_latitude":"-1.7165876","gmap_reference_longitude":"-79.8750258","acronym":""},"attach":[]},{"Ubication":{"id":1005,"created_at":"2020-02-10 14:52:58","updated_at":"2020-02-13 11:43:41","name":"SANTA LUCÍA","code":"05091850","father_code":"050918","gmap_reference_latitude":"-1.7139548","gmap_reference_longitude":"-79.9944162","acronym":""},"attach":[]},{"Ubication":{"id":1008,"created_at":"2020-02-10 14:52:58","updated_at":"2020-02-13 11:43:41","name":"BOCANA","code":"05091901","father_code":"050919","gmap_reference_latitude":"-1.8292959","gmap_reference_longitude":"-79.8260877","acronym":""},"attach":[]},{"Ubication":{"id":1002,"created_at":"2020-02-10 14:52:58","updated_at":"2020-02-13 11:43:41","name":"LA PUNTILLA (SATÉLITE)","code":"05091602","father_code":"050916","gmap_reference_latitude":"-2.1000207","gmap_reference_longitude":"-79.9141308","acronym":""},"attach":[]},{"Ubication":{"id":1003,"created_at":"2020-02-10 14:52:58","updated_at":"2020-02-13 11:43:41","name":"TARIFA","code":"05091651","father_code":"050916","gmap_reference_latitude":"-1.9676458","gmap_reference_longitude":"-79.8776445","acronym":""},"attach":[]},{"Ubication":{"id":326,"created_at":"2020-02-10 14:52:57","updated_at":"2020-02-13 11:43:40","name":"SAN MIGUEL DE LOS BANCOS","code":"02170750","father_code":"021707","gmap_reference_latitude":"0.0223371","gmap_reference_longitude":"-78.9014483","acronym":""},"attach":[]},{"Ubication":{"id":308,"created_at":"2020-02-10 14:52:57","updated_at":"2020-02-13 11:43:40","name":"EL CHAUPI","code":"02170354","father_code":"021703","gmap_reference_latitude":"-0.2107854","gmap_reference_longitude":"-78.5092769","acronym":""},"attach":[]},{"Ubication":{"id":686,"created_at":"2020-02-10 14:52:57","updated_at":"2020-02-13 11:43:41","name":"AMERICA","code":"04130651","father_code":"041306","gmap_reference_latitude":"-1.5178029","gmap_reference_longitude":"-80.8699196","acronym":""},"attach":[]},{"Ubication":{"id":1000,"created_at":"2020-02-10 14:52:58","updated_at":"2020-02-13 11:43:41","name":"SAMBORONDÓN (RURAL)","code":"05091650","father_code":"050916","gmap_reference_latitude":"-2.0175684","gmap_reference_longitude":"-79.9018361","acronym":""},"attach":[]},{"Ubication":{"id":1,"created_at":"2020-02-10 14:52:57","updated_at":"2020-02-13 11:43:40","name":"ZONA DE PLANIFICACIÓN 1 - NORTE: ESMERALDAS: Esmeraldas CZ1","code":"01","father_code":"-","gmap_reference_latitude":"-0.2107854","gmap_reference_longitude":"-78.5092769","acronym":""},"attach":[]},{"Ubication":{"id":2,"created_at":"2020-02-10 14:52:57","updated_at":"2020-02-13 11:43:40","name":"ESMERALDAS","code":"0108","father_code":"01","gmap_reference_latitude":"0.9635968","gmap_reference_longitude":"-79.6758351","acronym":"E"},"attach":[]},{"Ubication":{"id":3,"created_at":"2020-02-10 14:52:57","updated_at":"2020-02-13 11:43:40","name":"ESMERALDAS","code":"010801","father_code":"0108","gmap_reference_latitude":"0.9635968","gmap_reference_longitude":"-79.6758351","acronym":"ESM"},"attach":[]},{"Ubication":{"id":5,"created_at":"2020-02-10 14:52:57","updated_at":"2020-02-13 11:43:40","name":"BARTOLOMÉ RUIZ (CÉSAR FRANCO CARRIÓN) ","code":"01080101","father_code":"010801","gmap_reference_latitude":"0.9681789","gmap_reference_longitude":"-79.6539089","acronym":""},"attach":[]},{"Ubication":{"id":6,"created_at":"2020-02-10 14:52:57","updated_at":"2020-02-13 11:43:40","name":"5 DE AGOSTO","code":"01080102","father_code":"010801","gmap_reference_latitude":"0.9307525","gmap_reference_longitude":"-79.6647152","acronym":""},"attach":[]},{"Ubication":{"id":7,"created_at":"2020-02-10 14:52:57","updated_at":"2020-02-13 11:43:40","name":"LUIS TELLO  (LAS PALMAS)","code":"01080104","father_code":"010801","gmap_reference_latitude":"0.989916","gmap_reference_longitude":"-79.6594214","acronym":""},"attach":[]},{"Ubication":{"id":8,"created_at":"2020-02-10 14:52:57","updated_at":"2020-02-13 11:43:40","name":"SIMÓN PLATA TORRES","code":"01080105","father_code":"010801","gmap_reference_latitude":"0.9892221","gmap_reference_longitude":"-79.6617594","acronym":""},"attach":[]},{"Ubication":{"id":9,"created_at":"2020-02-10 14:52:57","updated_at":"2020-02-13 11:43:40","name":"CAMARONES (CAB. EN SAN VICENTE)","code":"01080152","father_code":"010801","gmap_reference_latitude":"0.9606248","gmap_reference_longitude":"-79.5951568","acronym":""},"attach":[]},{"Ubication":{"id":10,"created_at":"2020-02-10 14:52:57","updated_at":"2020-02-13 11:43:40","name":"CORONEL CARLOS CONCHA TORRES (CAB. EN HUELE)","code":"01080153","father_code":"010801","gmap_reference_latitude":"0.973982","gmap_reference_longitude":"-79.626994","acronym":""},"attach":[]},{"Ubication":{"id":11,"created_at":"2020-02-10 14:52:57","updated_at":"2020-02-13 11:43:40","name":"CHINCA","code":"01080154","father_code":"010801","gmap_reference_latitude":"0.766667","gmap_reference_longitude":"-79.6008427","acronym":""},"attach":[]},{"Ubication":{"id":12,"created_at":"2020-02-10 14:52:57","updated_at":"2020-02-13 11:43:40","name":"MAJUA","code":"01080159","father_code":"010801","gmap_reference_latitude":"0.6633303","gmap_reference_longitude":"-79.6541894","acronym":""},"attach":[]},{"Ubication":{"id":13,"created_at":"2020-02-10 14:52:57","updated_at":"2020-02-13 11:43:40","name":"SAN MATEO","code":"01080163","father_code":"010801","gmap_reference_latitude":"-0.9736862","gmap_reference_longitude":"-80.6988018","acronym":""},"attach":[]},{"Ubication":{"id":14,"created_at":"2020-02-10 14:52:57","updated_at":"2020-02-13 11:43:40","name":"TABIAZO","code":"01080165","father_code":"010801","gmap_reference_latitude":"0.9635968","gmap_reference_longitude":"-79.6758351","acronym":""},"attach":[]},{"Ubication":{"id":15,"created_at":"2020-02-10 14:52:57","updated_at":"2020-02-13 11:43:40","name":"TACHINA","code":"01080166","father_code":"010801","gmap_reference_latitude":"0.9749681","gmap_reference_longitude":"-79.6434978","acronym":""},"attach":[]},{"Ubication":{"id":16,"created_at":"2020-02-10 14:52:57","updated_at":"2020-02-13 11:43:40","name":"VUELTA LARGA","code":"01080168","father_code":"010801","gmap_reference_latitude":"0.9187413","gmap_reference_longitude":"-79.7262995","acronym":""},"attach":[]},{"Ubication":{"id":17,"created_at":"2020-02-10 14:52:57","updated_at":"2020-02-13 11:43:40","name":"ELOY ALFARO","code":"010802","father_code":"0108","gmap_reference_latitude":"-0.401069","gmap_reference_longitude":"-80.0972907","acronym":"EYF"},"attach":[]},{"Ubication":{"id":18,"created_at":"2020-02-10 14:52:57","updated_at":"2020-02-13 11:43:40","name":"VALDEZ (LIMONES)","code":"01080250","father_code":"010802","gmap_reference_latitude":"1.2167907","gmap_reference_longitude":"-79.0542324","acronym":""},"attach":[]},{"Ubication":{"id":19,"created_at":"2020-02-10 14:52:57","updated_at":"2020-02-13 11:43:40","name":"ANCHAYACU","code":"01080251","father_code":"010802","gmap_reference_latitude":"0.9556629","gmap_reference_longitude":"-79.0767597","acronym":""},"attach":[]},{"Ubication":{"id":20,"created_at":"2020-02-10 14:52:57","updated_at":"2020-02-13 11:43:40","name":"ATAHUALPA (CAB. EN CAMARONES)","code":"01080252","father_code":"010802","gmap_reference_latitude":"0.795999","gmap_reference_longitude":"-79.0699331","acronym":""},"attach":[]},{"Ubication":{"id":21,"created_at":"2020-02-10 14:52:57","updated_at":"2020-02-13 11:43:40","name":"BORBON","code":"01080253","father_code":"010802","gmap_reference_latitude":"1.0892019","gmap_reference_longitude":"-79.0074697","acronym":""},"attach":[]},{"Ubication":{"id":22,"created_at":"2020-02-10 14:52:57","updated_at":"2020-02-13 11:43:40","name":"LA TOLA","code":"01080254","father_code":"010802","gmap_reference_latitude":"1.1916169","gmap_reference_longitude":"-79.0655597","acronym":""},"attach":[]},{"Ubication":{"id":23,"created_at":"2020-02-10 14:52:57","updated_at":"2020-02-13 11:43:40","name":"LUIS VARGAS TORRES (CAB. EN PLAYA DE ORO)","code":"01080255","father_code":"010802","gmap_reference_latitude":"0.6325997","gmap_reference_longitude":"-78.9881541","acronym":""},"attach":[]},{"Ubication":{"id":24,"created_at":"2020-02-10 14:52:57","updated_at":"2020-02-13 11:43:40","name":"MALDONADO","code":"01080256","father_code":"010802","gmap_reference_latitude":"-1.6711245","gmap_reference_longitude":"-78.6571946","acronym":""},"attach":[]},{"Ubication":{"id":25,"created_at":"2020-02-10 14:52:57","updated_at":"2020-02-13 11:43:40","name":"PAMPANAL DE BOLÍVAR","code":"01080208","father_code":"010802","gmap_reference_latitude":"1.3531739","gmap_reference_longitude":"-78.9130707","acronym":""},"attach":[]},{"Ubication":{"id":26,"created_at":"2020-02-10 14:52:57","updated_at":"2020-02-13 11:43:40","name":"SAN FRANCISCO DE ONZOLE","code":"01080258","father_code":"010802","gmap_reference_latitude":"0.879588","gmap_reference_longitude":"-79.1001207","acronym":""},"attach":[]},{"Ubication":{"id":27,"created_at":"2020-02-10 14:52:57","updated_at":"2020-02-13 11:43:40","name":"SANTO DOMINGO DE ONZOLE","code":"01080259","father_code":"010802","gmap_reference_latitude":"0.6694146","gmap_reference_longitude":"-79.298012","acronym":""},"attach":[]},{"Ubication":{"id":28,"created_at":"2020-02-10 14:52:57","updated_at":"2020-02-13 11:43:40","name":"SELVA ALEGRE","code":"01080260","father_code":"010802","gmap_reference_latitude":"0.932861","gmap_reference_longitude":"-78.8769987","acronym":""},"attach":[]},{"Ubication":{"id":29,"created_at":"2020-02-10 14:52:57","updated_at":"2020-02-13 11:43:40","name":"TELEMBI","code":"01080261","father_code":"010802","gmap_reference_latitude":"0.8","gmap_reference_longitude":"-78.9508427","acronym":""},"attach":[]},{"Ubication":{"id":30,"created_at":"2020-02-10 14:52:57","updated_at":"2020-02-13 11:43:40","name":"COLON ELOY DEL MARIA","code":"01080262","father_code":"010802","gmap_reference_latitude":"0.993943","gmap_reference_longitude":"-78.9790702","acronym":""},"attach":[]},{"Ubication":{"id":31,"created_at":"2020-02-10 14:52:57","updated_at":"2020-02-13 11:43:40","name":"SAN JOSE DE CAYAPAS","code":"01080263","father_code":"010802","gmap_reference_latitude":"0.879639","gmap_reference_longitude":"-78.9879537","acronym":""},"attach":[]},{"Ubication":{"id":32,"created_at":"2020-02-10 14:52:57","updated_at":"2020-02-13 11:43:40","name":"TIMBIRE","code":"01080264","father_code":"010802","gmap_reference_latitude":"0.934385","gmap_reference_longitude":"-78.9024427","acronym":""},"attach":[]},{"Ubication":{"id":33,"created_at":"2020-02-10 14:52:57","updated_at":"2020-02-13 11:43:40","name":"SANTA LUCÍA DE LAS PEÑAS","code":"01080216","father_code":"010802","gmap_reference_latitude":"1.0652981","gmap_reference_longitude":"-79.2207563","acronym":""},"attach":[]},{"Ubication":{"id":34,"created_at":"2020-02-10 14:52:57","updated_at":"2020-02-13 11:43:40","name":"MUISNE","code":"010803","father_code":"0108","gmap_reference_latitude":"0.612047","gmap_reference_longitude":"-80.0238561","acronym":"MUS"},"attach":[]},{"Ubication":{"id":35,"created_at":"2020-02-10 14:52:57","updated_at":"2020-02-13 11:43:40","name":"MUISNE","code":"01080350","father_code":"010803","gmap_reference_latitude":"0.612047","gmap_reference_longitude":"-80.0238561","acronym":""},"attach":[]},{"Ubication":{"id":36,"created_at":"2020-02-10 14:52:57","updated_at":"2020-02-13 11:43:40","name":"BOLÍVAR","code":"01080351","father_code":"010803","gmap_reference_latitude":"-1.328229","gmap_reference_longitude":"-78.5363093","acronym":""},"attach":[]},{"Ubication":{"id":37,"created_at":"2020-02-10 14:52:57","updated_at":"2020-02-13 11:43:40","name":"DAULE","code":"01080352","father_code":"010803","gmap_reference_latitude":"-1.8621799","gmap_reference_longitude":"-79.9951787","acronym":""},"attach":[]},{"Ubication":{"id":38,"created_at":"2020-02-10 14:52:57","updated_at":"2020-02-13 11:43:40","name":"GALERA","code":"01080353","father_code":"010803","gmap_reference_latitude":"0.8157663","gmap_reference_longitude":"-80.0491332","acronym":""},"attach":[]},{"Ubication":{"id":39,"created_at":"2020-02-10 14:52:57","updated_at":"2020-02-13 11:43:40","name":"QUINGUE (OLMEDO PERDOMO FRANCO)","code":"01080354","father_code":"010803","gmap_reference_latitude":"0.7125287","gmap_reference_longitude":"-80.1059431","acronym":""},"attach":[]},{"Ubication":{"id":40,"created_at":"2020-02-10 14:52:57","updated_at":"2020-02-13 11:43:40","name":"SALIMA","code":"01080355","father_code":"010803","gmap_reference_latitude":"0.332709","gmap_reference_longitude":"-79.9877327","acronym":""},"attach":[]},{"Ubication":{"id":41,"created_at":"2020-02-10 14:52:57","updated_at":"2020-02-13 11:43:40","name":"SAN FRANCISCO","code":"01080356","father_code":"010803","gmap_reference_latitude":"-1.2313897","gmap_reference_longitude":"-78.599172","acronym":""},"attach":[]},{"Ubication":{"id":42,"created_at":"2020-02-10 14:52:57","updated_at":"2020-02-13 11:43:40","name":"SAN GREGORIO","code":"01080357","father_code":"010803","gmap_reference_latitude":"0.5658292","gmap_reference_longitude":"-80.0201004","acronym":""},"attach":[]},{"Ubication":{"id":43,"created_at":"2020-02-10 14:52:57","updated_at":"2020-02-13 11:43:40","name":"SAN JOSE DE CHAMANGA","code":"01080358","father_code":"010803","gmap_reference_latitude":"0.266667","gmap_reference_longitude":"-79.9508427","acronym":""},"attach":[]},{"Ubication":{"id":44,"created_at":"2020-02-10 14:52:57","updated_at":"2020-02-13 11:43:40","name":"QUININDÉ","code":"010804","father_code":"0108","gmap_reference_latitude":"0.3236657","gmap_reference_longitude":"-79.5041095","acronym":"QUN"},"attach":[]},{"Ubication":{"id":45,"created_at":"2020-02-10 14:52:57","updated_at":"2020-02-13 11:43:40","name":"ROSA ZARATE (QUININDÉ)","code":"01080401","father_code":"010804","gmap_reference_latitude":"0.2973898","gmap_reference_longitude":"-79.7758108","acronym":""},"attach":[]},{"Ubication":{"id":46,"created_at":"2020-02-10 14:52:57","updated_at":"2020-02-13 11:43:40","name":"CUBE","code":"01080451","father_code":"010804","gmap_reference_latitude":"0.573336","gmap_reference_longitude":"-79.6611407","acronym":""},"attach":[]},{"Ubication":{"id":999,"created_at":"2020-02-10 14:52:58","updated_at":"2020-02-13 11:43:41","name":"SAMBORONDÓN","code":"050916","father_code":"0509","gmap_reference_latitude":"-2.0175684","gmap_reference_longitude":"-79.9018361","acronym":"SBO"},"attach":[]},{"Ubication":{"id":47,"created_at":"2020-02-10 14:52:57","updated_at":"2020-02-13 11:43:40","name":"CHURA (CHANCAMA) (CAB. EN EL YERBERO)","code":"01080452","father_code":"010804","gmap_reference_latitude":"0.533362","gmap_reference_longitude":"-79.5227688","acronym":""},"attach":[]},{"Ubication":{"id":48,"created_at":"2020-02-10 14:52:57","updated_at":"2020-02-13 11:43:40","name":"MALIMPIA","code":"01080453","father_code":"010804","gmap_reference_latitude":"0.415856","gmap_reference_longitude":"-79.4356467","acronym":""},"attach":[]},{"Ubication":{"id":49,"created_at":"2020-02-10 14:52:57","updated_at":"2020-02-13 11:43:40","name":"VICHE","code":"01080454","father_code":"010804","gmap_reference_latitude":"0.6585214","gmap_reference_longitude":"-79.545393","acronym":""},"attach":[]},{"Ubication":{"id":50,"created_at":"2020-02-10 14:52:57","updated_at":"2020-02-13 11:43:40","name":"LA UNION","code":"01080455","father_code":"010804","gmap_reference_latitude":"-1.3532951","gmap_reference_longitude":"-80.6011982","acronym":""},"attach":[]},{"Ubication":{"id":51,"created_at":"2020-02-10 14:52:57","updated_at":"2020-02-13 11:43:40","name":"SAN LORENZO","code":"010805","father_code":"0108","gmap_reference_latitude":"-1.0661809","gmap_reference_longitude":"-80.9139526","acronym":"SLZ"},"attach":[]},{"Ubication":{"id":52,"created_at":"2020-02-10 14:52:57","updated_at":"2020-02-13 11:43:40","name":"SAN LORENZO","code":"01080550","father_code":"010805","gmap_reference_latitude":"-1.0661809","gmap_reference_longitude":"-80.9139526","acronym":""},"attach":[]},{"Ubication":{"id":53,"created_at":"2020-02-10 14:52:57","updated_at":"2020-02-13 11:43:40","name":"ALTO TAMBO (CAB EN GUADUAL)","code":"01080551","father_code":"010805","gmap_reference_latitude":"1.2707048","gmap_reference_longitude":"-78.8590907","acronym":""},"attach":[]},{"Ubication":{"id":54,"created_at":"2020-02-10 14:52:57","updated_at":"2020-02-13 11:43:40","name":"ANCON (PICHANGAL) (CAB. EN PALMA REAL)","code":"01080552","father_code":"010805","gmap_reference_latitude":"1.2707048","gmap_reference_longitude":"-78.8571598","acronym":""},"attach":[]},{"Ubication":{"id":55,"created_at":"2020-02-10 14:52:57","updated_at":"2020-02-13 11:43:40","name":"CALDERON","code":"01080553","father_code":"010805","gmap_reference_latitude":"1.2841735","gmap_reference_longitude":"-78.8364891","acronym":""},"attach":[]},{"Ubication":{"id":56,"created_at":"2020-02-10 14:52:57","updated_at":"2020-02-13 11:43:40","name":"CARONDELET","code":"01080554","father_code":"010805","gmap_reference_latitude":"1.290352","gmap_reference_longitude":"-78.8383711","acronym":""},"attach":[]},{"Ubication":{"id":57,"created_at":"2020-02-10 14:52:57","updated_at":"2020-02-13 11:43:40","name":"5 DE JUNIO (CAB. EN UIMBI)","code":"01080555","father_code":"010805","gmap_reference_latitude":"1.2707048","gmap_reference_longitude":"-78.8590907","acronym":""},"attach":[]},{"Ubication":{"id":58,"created_at":"2020-02-10 14:52:57","updated_at":"2020-02-13 11:43:40","name":"CONCEPCION","code":"01080556","father_code":"010805","gmap_reference_latitude":"0.5502091","gmap_reference_longitude":"-78.0452442","acronym":""},"attach":[]},{"Ubication":{"id":59,"created_at":"2020-02-10 14:52:57","updated_at":"2020-02-13 11:43:40","name":"MATAJE (CAB. EN SANTANDER)","code":"01080557","father_code":"010805","gmap_reference_latitude":"1.2707048","gmap_reference_longitude":"-78.8571598","acronym":""},"attach":[]},{"Ubication":{"id":60,"created_at":"2020-02-10 14:52:57","updated_at":"2020-02-13 11:43:40","name":"SAN JAVIER DE CACHAVI (CAB. EN SAN JAVIER)","code":"01080558","father_code":"010805","gmap_reference_latitude":"1.2707048","gmap_reference_longitude":"-78.8571598","acronym":""},"attach":[]},{"Ubication":{"id":61,"created_at":"2020-02-10 14:52:57","updated_at":"2020-02-13 11:43:40","name":"SANTA RITA","code":"01080559","father_code":"010805","gmap_reference_latitude":"-0.6992572","gmap_reference_longitude":"-80.0991845","acronym":""},"attach":[]},{"Ubication":{"id":62,"created_at":"2020-02-10 14:52:57","updated_at":"2020-02-13 11:43:40","name":"TAMBILLO","code":"01080560","father_code":"010805","gmap_reference_latitude":"-0.4059758","gmap_reference_longitude":"-78.5566343","acronym":""},"attach":[]},{"Ubication":{"id":63,"created_at":"2020-02-10 14:52:57","updated_at":"2020-02-13 11:43:40","name":"TULULBI (CAB. EN RICAURTE)","code":"01080561","father_code":"010805","gmap_reference_latitude":"1.2707048","gmap_reference_longitude":"-78.8571598","acronym":""},"attach":[]},{"Ubication":{"id":64,"created_at":"2020-02-10 14:52:57","updated_at":"2020-02-13 11:43:40","name":"URBINA","code":"01080562","father_code":"010805","gmap_reference_latitude":"1.2707048","gmap_reference_longitude":"-78.8571598","acronym":""},"attach":[]},{"Ubication":{"id":65,"created_at":"2020-02-10 14:52:57","updated_at":"2020-02-13 11:43:40","name":"ATACAMES","code":"010806","father_code":"0108","gmap_reference_latitude":"0.867286","gmap_reference_longitude":"-79.866915","acronym":"ATA"},"attach":[]},{"Ubication":{"id":66,"created_at":"2020-02-10 14:52:57","updated_at":"2020-02-13 11:43:40","name":"ATACAMES","code":"01080650","father_code":"010806","gmap_reference_latitude":"0.867286","gmap_reference_longitude":"-79.866915","acronym":""},"attach":[]},{"Ubication":{"id":67,"created_at":"2020-02-10 14:52:57","updated_at":"2020-02-13 11:43:40","name":"LA UNION","code":"01080651","father_code":"010806","gmap_reference_latitude":"-1.3532951","gmap_reference_longitude":"-80.6011982","acronym":""},"attach":[]},{"Ubication":{"id":68,"created_at":"2020-02-10 14:52:57","updated_at":"2020-02-13 11:43:40","name":"SUA (CAB. EN LA BOCANA)","code":"01080652","father_code":"010806","gmap_reference_latitude":"0.7669369","gmap_reference_longitude":"-80.0285889","acronym":""},"attach":[]},{"Ubication":{"id":69,"created_at":"2020-02-10 14:52:57","updated_at":"2020-02-13 11:43:40","name":"TONCHIGUE","code":"01080653","father_code":"010806","gmap_reference_latitude":"0.804828","gmap_reference_longitude":"-79.9578177","acronym":""},"attach":[]},{"Ubication":{"id":70,"created_at":"2020-02-10 14:52:57","updated_at":"2020-02-13 11:43:40","name":"TONSUPA","code":"01080654","father_code":"010806","gmap_reference_latitude":"0.8867241","gmap_reference_longitude":"-79.8495778","acronym":""},"attach":[]},{"Ubication":{"id":71,"created_at":"2020-02-10 14:52:57","updated_at":"2020-02-13 11:43:40","name":"RÍO VERDE","code":"010807","father_code":"0108","gmap_reference_latitude":"-0.2637841","gmap_reference_longitude":"-79.165645","acronym":"RVD"},"attach":[]},{"Ubication":{"id":72,"created_at":"2020-02-10 14:52:57","updated_at":"2020-02-13 11:43:40","name":"RÍO VERDE","code":"01080750","father_code":"010807","gmap_reference_latitude":"-0.2637841","gmap_reference_longitude":"-79.165645","acronym":""},"attach":[]},{"Ubication":{"id":73,"created_at":"2020-02-10 14:52:57","updated_at":"2020-02-13 11:43:40","name":"CHONTADURO","code":"01080751","father_code":"010807","gmap_reference_latitude":"0.933333","gmap_reference_longitude":"-79.4675097","acronym":""},"attach":[]},{"Ubication":{"id":74,"created_at":"2020-02-10 14:52:57","updated_at":"2020-02-13 11:43:40","name":"CHUMUNDE","code":"01080752","father_code":"010807","gmap_reference_latitude":"0.832721","gmap_reference_longitude":"-79.4364317","acronym":""},"attach":[]},{"Ubication":{"id":75,"created_at":"2020-02-10 14:52:57","updated_at":"2020-02-13 11:43:40","name":"LAGARTO","code":"01080753","father_code":"010807","gmap_reference_latitude":"1.059707","gmap_reference_longitude":"-79.4208227","acronym":""},"attach":[]},{"Ubication":{"id":76,"created_at":"2020-02-10 14:52:57","updated_at":"2020-02-13 11:43:40","name":"MONTALVO (CAB EN HORQUETA)","code":"01080754","father_code":"010807","gmap_reference_latitude":"1.059707","gmap_reference_longitude":"-79.4208227","acronym":""},"attach":[]},{"Ubication":{"id":77,"created_at":"2020-02-10 14:52:57","updated_at":"2020-02-13 11:43:40","name":"ROCAFUERTE","code":"01080755","father_code":"010807","gmap_reference_latitude":"-0.923584","gmap_reference_longitude":"-80.4596615","acronym":""},"attach":[]},{"Ubication":{"id":78,"created_at":"2020-02-10 14:52:57","updated_at":"2020-02-13 11:43:40","name":"CARCHI","code":"0104","father_code":"01","gmap_reference_latitude":"0.7771566","gmap_reference_longitude":"-78.600879","acronym":"C"},"attach":[]},{"Ubication":{"id":80,"created_at":"2020-02-10 14:52:57","updated_at":"2020-02-13 11:43:40","name":"GONZÁLEZ SUÁREZ","code":"01040101","father_code":"010401","gmap_reference_latitude":"0.5076373","gmap_reference_longitude":"-77.866338","acronym":""},"attach":[]},{"Ubication":{"id":82,"created_at":"2020-02-10 14:52:57","updated_at":"2020-02-13 11:43:40","name":"EL CARMELO (EL PUN)","code":"01040151","father_code":"010401","gmap_reference_latitude":"0.669587","gmap_reference_longitude":"-77.6657164","acronym":""},"attach":[]},{"Ubication":{"id":83,"created_at":"2020-02-10 14:52:57","updated_at":"2020-02-13 11:43:40","name":"JULIO ANDRADE (OREJUELA)","code":"01040153","father_code":"010401","gmap_reference_latitude":"0.6920488","gmap_reference_longitude":"-77.7871182","acronym":""},"attach":[]},{"Ubication":{"id":84,"created_at":"2020-02-10 14:52:57","updated_at":"2020-02-13 11:43:40","name":"MALDONADO","code":"01040154","father_code":"010401","gmap_reference_latitude":"-1.6711245","gmap_reference_longitude":"-78.6571946","acronym":""},"attach":[]},{"Ubication":{"id":85,"created_at":"2020-02-10 14:52:57","updated_at":"2020-02-13 11:43:40","name":"PIOTER","code":"01040155","father_code":"010401","gmap_reference_latitude":"0.65","gmap_reference_longitude":"-77.8008427","acronym":""},"attach":[]},{"Ubication":{"id":86,"created_at":"2020-02-10 14:52:57","updated_at":"2020-02-13 11:43:40","name":"TOBAR DONOSO (LA BOCANA DE CAMUMBI)","code":"01040156","father_code":"010401","gmap_reference_latitude":"1.0295721","gmap_reference_longitude":"-78.5482094","acronym":""},"attach":[]},{"Ubication":{"id":87,"created_at":"2020-02-10 14:52:57","updated_at":"2020-02-13 11:43:40","name":"TUFIÑO","code":"01040157","father_code":"010401","gmap_reference_latitude":"0.7993582","gmap_reference_longitude":"-77.8648174","acronym":""},"attach":[]},{"Ubication":{"id":88,"created_at":"2020-02-10 14:52:57","updated_at":"2020-02-13 11:43:40","name":"URBINA (TAYA)","code":"01040158","father_code":"010401","gmap_reference_latitude":"0.779649","gmap_reference_longitude":"-77.7349961","acronym":""},"attach":[]},{"Ubication":{"id":89,"created_at":"2020-02-10 14:52:57","updated_at":"2020-02-13 11:43:40","name":"EL CHICAL","code":"01040159","father_code":"010401","gmap_reference_latitude":"1.0146041","gmap_reference_longitude":"-78.4117428","acronym":""},"attach":[]},{"Ubication":{"id":90,"created_at":"2020-02-10 14:52:57","updated_at":"2020-02-13 11:43:40","name":"SANTA MARTHA DE CUBA","code":"01040161","father_code":"010401","gmap_reference_latitude":"0.6475115","gmap_reference_longitude":"-77.8012634","acronym":""},"attach":[]},{"Ubication":{"id":91,"created_at":"2020-02-10 14:52:57","updated_at":"2020-02-13 11:43:40","name":"BOLÍVAR","code":"010402","father_code":"0104","gmap_reference_latitude":"-1.328229","gmap_reference_longitude":"-78.5363093","acronym":"BOL"},"attach":[]},{"Ubication":{"id":92,"created_at":"2020-02-10 14:52:57","updated_at":"2020-02-13 11:43:40","name":"BOLÍVAR","code":"01040250","father_code":"010402","gmap_reference_latitude":"-1.328229","gmap_reference_longitude":"-78.5363093","acronym":""},"attach":[]},{"Ubication":{"id":93,"created_at":"2020-02-10 14:52:57","updated_at":"2020-02-13 11:43:40","name":"GARCIA MORENO","code":"01040251","father_code":"010402","gmap_reference_latitude":"-0.5268338","gmap_reference_longitude":"-77.0186947","acronym":""},"attach":[]},{"Ubication":{"id":94,"created_at":"2020-02-10 14:52:57","updated_at":"2020-02-13 11:43:40","name":"LOS ANDES","code":"01040252","father_code":"010402","gmap_reference_latitude":"0.5009229","gmap_reference_longitude":"-77.9201462","acronym":""},"attach":[]},{"Ubication":{"id":95,"created_at":"2020-02-10 14:52:57","updated_at":"2020-02-13 11:43:40","name":"MONTE OLIVO","code":"01040253","father_code":"010402","gmap_reference_latitude":"0.5009229","gmap_reference_longitude":"-77.9201462","acronym":""},"attach":[]},{"Ubication":{"id":96,"created_at":"2020-02-10 14:52:57","updated_at":"2020-02-13 11:43:40","name":"SAN VICENTE DE PUSIR","code":"01040254","father_code":"010402","gmap_reference_latitude":"0.5009229","gmap_reference_longitude":"-77.9201462","acronym":""},"attach":[]},{"Ubication":{"id":97,"created_at":"2020-02-10 14:52:57","updated_at":"2020-02-13 11:43:40","name":"SAN RAFAEL","code":"01040255","father_code":"010402","gmap_reference_latitude":"-0.3333927","gmap_reference_longitude":"-78.4727037","acronym":""},"attach":[]},{"Ubication":{"id":98,"created_at":"2020-02-10 14:52:57","updated_at":"2020-02-13 11:43:40","name":"ESPEJO","code":"010403","father_code":"0104","gmap_reference_latitude":"0.708464","gmap_reference_longitude":"-78.1912437","acronym":"EPJ"},"attach":[]},{"Ubication":{"id":99,"created_at":"2020-02-10 14:52:57","updated_at":"2020-02-13 11:43:40","name":"EL ANGEL","code":"01040350","father_code":"010403","gmap_reference_latitude":"0.6189774","gmap_reference_longitude":"-77.9489851","acronym":""},"attach":[]},{"Ubication":{"id":100,"created_at":"2020-02-10 14:52:57","updated_at":"2020-02-13 11:43:40","name":"27 DE SEPTIEMBRE","code":"01040302","father_code":"010403","gmap_reference_latitude":"0.708464","gmap_reference_longitude":"-78.1912437","acronym":""},"attach":[]},{"Ubication":{"id":101,"created_at":"2020-02-10 14:52:57","updated_at":"2020-02-13 11:43:40","name":"EL GOALTAL","code":"01040351","father_code":"010403","gmap_reference_latitude":"0.7717247","gmap_reference_longitude":"-78.2099861","acronym":""},"attach":[]},{"Ubication":{"id":102,"created_at":"2020-02-10 14:52:57","updated_at":"2020-02-13 11:43:40","name":"LA LIBERTAD (ALIZO)","code":"01040352","father_code":"010403","gmap_reference_latitude":"0.7079806","gmap_reference_longitude":"-78.1145522","acronym":""},"attach":[]},{"Ubication":{"id":103,"created_at":"2020-02-10 14:52:57","updated_at":"2020-02-13 11:43:40","name":"SAN ISIDRO","code":"01040353","father_code":"010403","gmap_reference_latitude":"-0.3786823","gmap_reference_longitude":"-80.1938867","acronym":""},"attach":[]},{"Ubication":{"id":104,"created_at":"2020-02-10 14:52:57","updated_at":"2020-02-13 11:43:40","name":"MIRA","code":"010404","father_code":"0104","gmap_reference_latitude":"0.5502091","gmap_reference_longitude":"-78.0452442","acronym":"MIR"},"attach":[]},{"Ubication":{"id":105,"created_at":"2020-02-10 14:52:57","updated_at":"2020-02-13 11:43:40","name":"MIRA (CHONTAHUASI)","code":"01040450","father_code":"010404","gmap_reference_latitude":"0.5594575","gmap_reference_longitude":"-78.1159843","acronym":""},"attach":[]},{"Ubication":{"id":106,"created_at":"2020-02-10 14:52:57","updated_at":"2020-02-13 11:43:40","name":"CONCEPCION","code":"01040451","father_code":"010404","gmap_reference_latitude":"0.5502091","gmap_reference_longitude":"-78.0452442","acronym":""},"attach":[]},{"Ubication":{"id":107,"created_at":"2020-02-10 14:52:57","updated_at":"2020-02-13 11:43:40","name":"JIJON Y CAAMAÑO (CAB. EN RIO BLANCO)","code":"01040452","father_code":"010404","gmap_reference_latitude":"0.8328049","gmap_reference_longitude":"-78.456232","acronym":""},"attach":[]},{"Ubication":{"id":108,"created_at":"2020-02-10 14:52:57","updated_at":"2020-02-13 11:43:40","name":"JUAN MONTALVO (SAN IGNACIO DE QUIL)","code":"01040453","father_code":"010404","gmap_reference_latitude":"0.5570795","gmap_reference_longitude":"-78.1665266","acronym":""},"attach":[]},{"Ubication":{"id":109,"created_at":"2020-02-10 14:52:57","updated_at":"2020-02-13 11:43:40","name":"MONTÚFAR","code":"010405","father_code":"0104","gmap_reference_latitude":"0.5651469","gmap_reference_longitude":"-77.7900467","acronym":"MTF"},"attach":[]},{"Ubication":{"id":110,"created_at":"2020-02-10 14:52:57","updated_at":"2020-02-13 11:43:40","name":"SAN GABRIEL","code":"01040550","father_code":"010405","gmap_reference_latitude":"0.5960833","gmap_reference_longitude":"-77.8380704","acronym":""},"attach":[]},{"Ubication":{"id":111,"created_at":"2020-02-10 14:52:57","updated_at":"2020-02-13 11:43:40","name":"GONZÁLEZ SUÁREZ","code":"01040101","father_code":"010405","gmap_reference_latitude":"0.5076373","gmap_reference_longitude":"-77.866338","acronym":""},"attach":[]},{"Ubication":{"id":112,"created_at":"2020-02-10 14:52:57","updated_at":"2020-02-13 11:43:40","name":"SAN JOSÉ","code":"01040502","father_code":"010405","gmap_reference_latitude":"-3.9974558","gmap_reference_longitude":"-79.3541653","acronym":""},"attach":[]},{"Ubication":{"id":113,"created_at":"2020-02-10 14:52:57","updated_at":"2020-02-13 11:43:40","name":"CRISTOBAL COLON","code":"01040551","father_code":"010405","gmap_reference_latitude":"0.607069","gmap_reference_longitude":"-77.816763","acronym":""},"attach":[]},{"Ubication":{"id":114,"created_at":"2020-02-10 14:52:57","updated_at":"2020-02-13 11:43:40","name":"CHITAN DE NAVARRETE","code":"01040552","father_code":"010405","gmap_reference_latitude":"0.6482541","gmap_reference_longitude":"-77.8756785","acronym":""},"attach":[]},{"Ubication":{"id":115,"created_at":"2020-02-10 14:52:57","updated_at":"2020-02-13 11:43:40","name":"FERNANDEZ SALVADOR","code":"01040553","father_code":"010405","gmap_reference_latitude":"0.5699511","gmap_reference_longitude":"-77.7904279","acronym":""},"attach":[]},{"Ubication":{"id":116,"created_at":"2020-02-10 14:52:57","updated_at":"2020-02-13 11:43:40","name":"LA PAZ","code":"01040554","father_code":"010405","gmap_reference_latitude":"-3.7018742","gmap_reference_longitude":"-78.899002","acronym":""},"attach":[]},{"Ubication":{"id":117,"created_at":"2020-02-10 14:52:57","updated_at":"2020-02-13 11:43:40","name":"PIARTAL","code":"01040555","father_code":"010405","gmap_reference_latitude":"0.5502656","gmap_reference_longitude":"-77.7843924","acronym":""},"attach":[]},{"Ubication":{"id":118,"created_at":"2020-02-10 14:52:57","updated_at":"2020-02-13 11:43:40","name":"SAN PEDRO DE HUACA","code":"010406","father_code":"0104","gmap_reference_latitude":"0.6315294","gmap_reference_longitude":"-77.7356959","acronym":"HUA"},"attach":[]},{"Ubication":{"id":119,"created_at":"2020-02-10 14:52:57","updated_at":"2020-02-13 11:43:40","name":"HUACA","code":"01040650","father_code":"010406","gmap_reference_latitude":"0.6315294","gmap_reference_longitude":"-77.7356959","acronym":""},"attach":[]},{"Ubication":{"id":120,"created_at":"2020-02-10 14:52:57","updated_at":"2020-02-13 11:43:40","name":"MARISCAL SUCRE","code":"01040651","father_code":"010406","gmap_reference_latitude":"-0.2107853","gmap_reference_longitude":"-78.535542","acronym":""},"attach":[]},{"Ubication":{"id":121,"created_at":"2020-02-10 14:52:57","updated_at":"2020-02-13 11:43:40","name":"IMBABURA ","code":"0101","father_code":"01","gmap_reference_latitude":"0.4993957","gmap_reference_longitude":"-79.1031574","acronym":"I"},"attach":[]},{"Ubication":{"id":122,"created_at":"2020-02-10 14:52:57","updated_at":"2020-02-13 11:43:40","name":"IBARRA","code":"011001","father_code":"0101","gmap_reference_latitude":"0.35162","gmap_reference_longitude":"-78.1579217","acronym":"IBA"},"attach":[]},{"Ubication":{"id":123,"created_at":"2020-02-10 14:52:57","updated_at":"2020-02-13 11:43:40","name":"SAN MIGUEL DE IBARRA","code":"01100150","father_code":"011001","gmap_reference_latitude":"0.35162","gmap_reference_longitude":"-78.1579217","acronym":""},"attach":[]},{"Ubication":{"id":124,"created_at":"2020-02-10 14:52:57","updated_at":"2020-02-13 11:43:40","name":"CARANQUI","code":"01100101","father_code":"011001","gmap_reference_latitude":"0.327453","gmap_reference_longitude":"-78.1314916","acronym":""},"attach":[]},{"Ubication":{"id":125,"created_at":"2020-02-10 14:52:57","updated_at":"2020-02-13 11:43:40","name":"GUAYAQUIL DE ALPACHACA","code":"01100102","father_code":"011001","gmap_reference_latitude":"0.364499","gmap_reference_longitude":"-78.1414981","acronym":""},"attach":[]},{"Ubication":{"id":126,"created_at":"2020-02-10 14:52:57","updated_at":"2020-02-13 11:43:40","name":"SAGRARIO","code":"01100103","father_code":"011001","gmap_reference_latitude":"0.3624867","gmap_reference_longitude":"-78.1639242","acronym":""},"attach":[]},{"Ubication":{"id":127,"created_at":"2020-02-10 14:52:57","updated_at":"2020-02-13 11:43:40","name":"SAN FRANCISCO","code":"01100104","father_code":"011001","gmap_reference_latitude":"-1.2313897","gmap_reference_longitude":"-78.599172","acronym":""},"attach":[]},{"Ubication":{"id":128,"created_at":"2020-02-10 14:52:57","updated_at":"2020-02-13 11:43:40","name":"LA DOLOROSA DEL PRIORATO","code":"01100105","father_code":"011001","gmap_reference_latitude":"0.4201497","gmap_reference_longitude":"-78.1506555","acronym":""},"attach":[]},{"Ubication":{"id":129,"created_at":"2020-02-10 14:52:57","updated_at":"2020-02-13 11:43:40","name":"AMBUQUI","code":"01100151","father_code":"011001","gmap_reference_latitude":"0.4490615","gmap_reference_longitude":"-78.0152679","acronym":""},"attach":[]},{"Ubication":{"id":130,"created_at":"2020-02-10 14:52:57","updated_at":"2020-02-13 11:43:40","name":"ANGOCHAGUA","code":"01100152","father_code":"011001","gmap_reference_latitude":"0.24553","gmap_reference_longitude":"-78.1014867","acronym":""},"attach":[]},{"Ubication":{"id":131,"created_at":"2020-02-10 14:52:57","updated_at":"2020-02-13 11:43:40","name":"CAROLINA","code":"01100153","father_code":"011001","gmap_reference_latitude":"0.3317155","gmap_reference_longitude":"-78.1122038","acronym":""},"attach":[]},{"Ubication":{"id":132,"created_at":"2020-02-10 14:52:57","updated_at":"2020-02-13 11:43:40","name":"LA ESPERANZA","code":"01100154","father_code":"011001","gmap_reference_latitude":"-0.2107854","gmap_reference_longitude":"-78.5092769","acronym":""},"attach":[]},{"Ubication":{"id":133,"created_at":"2020-02-10 14:52:57","updated_at":"2020-02-13 11:43:40","name":"LITA","code":"01100155","father_code":"011001","gmap_reference_latitude":"0.7827596","gmap_reference_longitude":"-78.5192637","acronym":""},"attach":[]},{"Ubication":{"id":134,"created_at":"2020-02-10 14:52:57","updated_at":"2020-02-13 11:43:40","name":"SALINAS","code":"01100156","father_code":"011001","gmap_reference_latitude":"-2.2278272","gmap_reference_longitude":"-81.0009966","acronym":""},"attach":[]},{"Ubication":{"id":135,"created_at":"2020-02-10 14:52:57","updated_at":"2020-02-13 11:43:40","name":"SAN ANTONIO","code":"01100157","father_code":"011001","gmap_reference_latitude":"-0.0005579","gmap_reference_longitude":"-78.4668877","acronym":""},"attach":[]},{"Ubication":{"id":144,"created_at":"2020-02-10 14:52:57","updated_at":"2020-02-13 11:43:40","name":"COTACACHI","code":"011003","father_code":"0101","gmap_reference_latitude":"0.3020368","gmap_reference_longitude":"-78.2879307","acronym":"CTH"},"attach":[]},{"Ubication":{"id":145,"created_at":"2020-02-10 14:52:57","updated_at":"2020-02-13 11:43:40","name":"COTACACHI","code":"01100350","father_code":"011003","gmap_reference_latitude":"0.3020368","gmap_reference_longitude":"-78.2879307","acronym":""},"attach":[]},{"Ubication":{"id":146,"created_at":"2020-02-10 14:52:57","updated_at":"2020-02-13 11:43:40","name":"SAGRARIO","code":"01100103","father_code":"011003","gmap_reference_latitude":"0.3624867","gmap_reference_longitude":"-78.1639242","acronym":""},"attach":[]},{"Ubication":{"id":147,"created_at":"2020-02-10 14:52:57","updated_at":"2020-02-13 11:43:40","name":"SAN FRANCISCO","code":"01100302","father_code":"011003","gmap_reference_latitude":"-1.2313897","gmap_reference_longitude":"-78.599172","acronym":""},"attach":[]},{"Ubication":{"id":81,"created_at":"2020-02-10 14:52:57","updated_at":"2020-02-13 11:43:40","name":"TULCÁN","code":"01040102","father_code":"010401","gmap_reference_latitude":"0.8147287","gmap_reference_longitude":"-77.7544937","acronym":""},"attach":[]},{"Ubication":{"id":137,"created_at":"2020-02-10 14:52:57","updated_at":"2020-02-13 11:43:40","name":"ATUNTAQUI (RURAL)","code":"010100250","father_code":"010102","gmap_reference_latitude":"0.3303604","gmap_reference_longitude":"-78.2272054","acronym":""},"attach":[]},{"Ubication":{"id":136,"created_at":"2020-02-10 14:52:57","updated_at":"2020-02-13 11:43:40","name":"ANTONIO ANTE","code":"010102","father_code":"0101","gmap_reference_latitude":"0.3280496","gmap_reference_longitude":"-78.2597781","acronym":"ANT"},"attach":[]},{"Ubication":{"id":148,"created_at":"2020-02-10 14:52:57","updated_at":"2020-02-13 11:43:40","name":"APUELA","code":"01100351","father_code":"011003","gmap_reference_latitude":"0.3569246","gmap_reference_longitude":"-78.5164118","acronym":""},"attach":[]},{"Ubication":{"id":149,"created_at":"2020-02-10 14:52:57","updated_at":"2020-02-13 11:43:40","name":"GARCIA MORENO (LLURIMAGUA)","code":"01100352","father_code":"011003","gmap_reference_latitude":"-0.2107854","gmap_reference_longitude":"-78.5092769","acronym":""},"attach":[]},{"Ubication":{"id":150,"created_at":"2020-02-10 14:52:57","updated_at":"2020-02-13 11:43:40","name":"IMANTAG","code":"01100353","father_code":"011003","gmap_reference_latitude":"0.2993305","gmap_reference_longitude":"-78.2691538","acronym":""},"attach":[]},{"Ubication":{"id":151,"created_at":"2020-02-10 14:52:57","updated_at":"2020-02-13 11:43:40","name":"PEÑAHERRERA","code":"01100354","father_code":"011003","gmap_reference_latitude":"0.3468837","gmap_reference_longitude":"-78.6565564","acronym":""},"attach":[]},{"Ubication":{"id":152,"created_at":"2020-02-10 14:52:57","updated_at":"2020-02-13 11:43:40","name":"PLAZA GUTIERREZ (CALVARIO)","code":"01100355","father_code":"011003","gmap_reference_latitude":"0.3437283","gmap_reference_longitude":"-78.4940043","acronym":""},"attach":[]},{"Ubication":{"id":153,"created_at":"2020-02-10 14:52:57","updated_at":"2020-02-13 11:43:40","name":"QUIROGA","code":"01100356","father_code":"011003","gmap_reference_latitude":"-0.881327","gmap_reference_longitude":"-80.1121277","acronym":""},"attach":[]},{"Ubication":{"id":154,"created_at":"2020-02-10 14:52:57","updated_at":"2020-02-13 11:43:40","name":"SEIS DE JULIO DE CUELLAJE (CAB. EN CUELLAJE)","code":"01100357","father_code":"011003","gmap_reference_latitude":"0.4638912","gmap_reference_longitude":"-78.607227","acronym":""},"attach":[]},{"Ubication":{"id":155,"created_at":"2020-02-10 14:52:57","updated_at":"2020-02-13 11:43:40","name":"VACAS GALINDO (EL CHURO) (CAB. EN SAN MIGUEL ALTO)","code":"01100358","father_code":"011003","gmap_reference_latitude":"0.3050292","gmap_reference_longitude":"-78.6120751","acronym":""},"attach":[]},{"Ubication":{"id":156,"created_at":"2020-02-10 14:52:57","updated_at":"2020-02-13 11:43:40","name":"OTAVALO","code":"011004","father_code":"0101","gmap_reference_latitude":"0.23333","gmap_reference_longitude":"-78.2776739","acronym":"OTV"},"attach":[]},{"Ubication":{"id":157,"created_at":"2020-02-10 14:52:57","updated_at":"2020-02-13 11:43:40","name":"OTAVALO","code":"01100450","father_code":"011004","gmap_reference_latitude":"0.23333","gmap_reference_longitude":"-78.2776739","acronym":""},"attach":[]},{"Ubication":{"id":158,"created_at":"2020-02-10 14:52:57","updated_at":"2020-02-13 11:43:40","name":"JORDÁN","code":"01100401","father_code":"011004","gmap_reference_latitude":"0.2256394","gmap_reference_longitude":"-78.2640068","acronym":""},"attach":[]},{"Ubication":{"id":159,"created_at":"2020-02-10 14:52:57","updated_at":"2020-02-13 11:43:40","name":"SAN LUIS","code":"01100402","father_code":"011004","gmap_reference_latitude":"-1.7090089","gmap_reference_longitude":"-78.6632086","acronym":""},"attach":[]},{"Ubication":{"id":160,"created_at":"2020-02-10 14:52:57","updated_at":"2020-02-13 11:43:40","name":"DOCTOR MIGUEL EGAS CABEZAS (PEGUCHE)","code":"01100451","father_code":"011004","gmap_reference_latitude":"0.2467831","gmap_reference_longitude":"-78.2507968","acronym":""},"attach":[]},{"Ubication":{"id":161,"created_at":"2020-02-10 14:52:57","updated_at":"2020-02-13 11:43:40","name":"EUGENIO ESPEJO (CALPAQUI)","code":"01100452","father_code":"011004","gmap_reference_latitude":"0.1857522","gmap_reference_longitude":"-78.319071","acronym":""},"attach":[]},{"Ubication":{"id":162,"created_at":"2020-02-10 14:52:57","updated_at":"2020-02-13 11:43:40","name":"GONZALEZ SUAREZ","code":"01100453","father_code":"011004","gmap_reference_latitude":"0.1797291","gmap_reference_longitude":"-78.213215","acronym":""},"attach":[]},{"Ubication":{"id":163,"created_at":"2020-02-10 14:52:57","updated_at":"2020-02-13 11:43:40","name":"PATAQUI","code":"01100454","father_code":"011004","gmap_reference_latitude":"0.1868282","gmap_reference_longitude":"-78.3926509","acronym":""},"attach":[]},{"Ubication":{"id":164,"created_at":"2020-02-10 14:52:57","updated_at":"2020-02-13 11:43:40","name":"SAN JOSE DE QUICHINCHE","code":"01100455","father_code":"011004","gmap_reference_latitude":"0.2367888","gmap_reference_longitude":"-78.2910026","acronym":""},"attach":[]},{"Ubication":{"id":165,"created_at":"2020-02-10 14:52:57","updated_at":"2020-02-13 11:43:40","name":"SAN JUAN DE ILUMAN","code":"01100456","father_code":"011004","gmap_reference_latitude":"0.2813349","gmap_reference_longitude":"-78.2530367","acronym":""},"attach":[]},{"Ubication":{"id":166,"created_at":"2020-02-10 14:52:57","updated_at":"2020-02-13 11:43:40","name":"SAN PABLO","code":"01100457","father_code":"011004","gmap_reference_latitude":"-1.0526112","gmap_reference_longitude":"-80.4589212","acronym":""},"attach":[]},{"Ubication":{"id":167,"created_at":"2020-02-10 14:52:57","updated_at":"2020-02-13 11:43:40","name":"SAN RAFAEL","code":"01100458","father_code":"011004","gmap_reference_latitude":"-0.3333927","gmap_reference_longitude":"-78.4727037","acronym":""},"attach":[]},{"Ubication":{"id":168,"created_at":"2020-02-10 14:52:57","updated_at":"2020-02-13 11:43:40","name":"SELVA ALEGRE (CAB. EN SAN MIGUEL DE PAMPLONA)","code":"01100459","father_code":"011004","gmap_reference_latitude":"-0.2107854","gmap_reference_longitude":"-78.5092769","acronym":""},"attach":[]},{"Ubication":{"id":169,"created_at":"2020-02-10 14:52:57","updated_at":"2020-02-13 11:43:40","name":"PIMAMPIRO","code":"011005","father_code":"0101","gmap_reference_latitude":"0.3901135","gmap_reference_longitude":"-77.9479705","acronym":"PMP"},"attach":[]},{"Ubication":{"id":170,"created_at":"2020-02-10 14:52:57","updated_at":"2020-02-13 11:43:40","name":"PIMAMPIRO","code":"01100550","father_code":"011005","gmap_reference_latitude":"0.3901135","gmap_reference_longitude":"-77.9479705","acronym":""},"attach":[]},{"Ubication":{"id":171,"created_at":"2020-02-10 14:52:57","updated_at":"2020-02-13 11:43:40","name":"CHUGA","code":"01100551","father_code":"011005","gmap_reference_latitude":"0.383333","gmap_reference_longitude":"-77.9175097","acronym":""},"attach":[]},{"Ubication":{"id":172,"created_at":"2020-02-10 14:52:57","updated_at":"2020-02-13 11:43:40","name":"MARIANO ACOSTA","code":"01100552","father_code":"011005","gmap_reference_latitude":"0.3038392","gmap_reference_longitude":"-78.0015137","acronym":""},"attach":[]},{"Ubication":{"id":173,"created_at":"2020-02-10 14:52:57","updated_at":"2020-02-13 11:43:40","name":"SAN FRANCISCO DE SIGSIPAMBA","code":"01100553","father_code":"011005","gmap_reference_latitude":"0.3166669","gmap_reference_longitude":"-77.9341767","acronym":""},"attach":[]},{"Ubication":{"id":174,"created_at":"2020-02-10 14:52:57","updated_at":"2020-02-13 11:43:40","name":"SAN MIGUEL DE URCUQUÍ","code":"011006","father_code":"0101","gmap_reference_latitude":"0.4211459","gmap_reference_longitude":"-78.2042456","acronym":"URQ"},"attach":[]},{"Ubication":{"id":175,"created_at":"2020-02-10 14:52:57","updated_at":"2020-02-13 11:43:40","name":"URCUQUI","code":"01100650","father_code":"011006","gmap_reference_latitude":"0.4211459","gmap_reference_longitude":"-78.2042456","acronym":""},"attach":[]},{"Ubication":{"id":176,"created_at":"2020-02-10 14:52:57","updated_at":"2020-02-13 11:43:40","name":"CAHUASQUI","code":"01100651","father_code":"011006","gmap_reference_latitude":"0.516667","gmap_reference_longitude":"-78.2508427","acronym":""},"attach":[]},{"Ubication":{"id":177,"created_at":"2020-02-10 14:52:57","updated_at":"2020-02-13 11:43:40","name":"LA MERCED DE BUENOS AIRES","code":"01100652","father_code":"011006","gmap_reference_latitude":"0.633333","gmap_reference_longitude":"-78.3175097","acronym":""},"attach":[]},{"Ubication":{"id":178,"created_at":"2020-02-10 14:52:57","updated_at":"2020-02-13 11:43:40","name":"PABLO ARENAS","code":"01100653","father_code":"011006","gmap_reference_latitude":"0.491467","gmap_reference_longitude":"-78.2898488","acronym":""},"attach":[]},{"Ubication":{"id":179,"created_at":"2020-02-10 14:52:57","updated_at":"2020-02-13 11:43:40","name":"SAN BLAS","code":"01100654","father_code":"011006","gmap_reference_latitude":"-2.9025127","gmap_reference_longitude":"-79.0088631","acronym":""},"attach":[]},{"Ubication":{"id":180,"created_at":"2020-02-10 14:52:57","updated_at":"2020-02-13 11:43:40","name":"TUMBABIRO","code":"01100655","father_code":"011006","gmap_reference_latitude":"0.4211459","gmap_reference_longitude":"-78.2042456","acronym":""},"attach":[]},{"Ubication":{"id":181,"created_at":"2020-02-10 14:52:57","updated_at":"2020-02-13 11:43:40","name":"SUCUMBÍOS","code":"0121","father_code":"01","gmap_reference_latitude":"0.0031385","gmap_reference_longitude":"-77.7229023","acronym":"K"},"attach":[]},{"Ubication":{"id":182,"created_at":"2020-02-10 14:52:57","updated_at":"2020-02-13 11:43:40","name":"LAGO AGRIO","code":"012101","father_code":"0121","gmap_reference_latitude":"0.1289213","gmap_reference_longitude":"-77.2946556","acronym":"LGQ"},"attach":[]},{"Ubication":{"id":183,"created_at":"2020-02-10 14:52:57","updated_at":"2020-02-13 11:43:40","name":"NUEVA LOJA","code":"01210150","father_code":"012101","gmap_reference_latitude":"0.0802086","gmap_reference_longitude":"-76.9858398","acronym":""},"attach":[]},{"Ubication":{"id":184,"created_at":"2020-02-10 14:52:57","updated_at":"2020-02-13 11:43:40","name":"DURENO","code":"01210152","father_code":"012101","gmap_reference_latitude":"0.05","gmap_reference_longitude":"-76.7175097","acronym":""},"attach":[]},{"Ubication":{"id":185,"created_at":"2020-02-10 14:52:57","updated_at":"2020-02-13 11:43:40","name":"GENERAL FARFAN","code":"01210153","father_code":"012101","gmap_reference_latitude":"0.1867305","gmap_reference_longitude":"-76.8822039","acronym":""},"attach":[]},{"Ubication":{"id":186,"created_at":"2020-02-10 14:52:57","updated_at":"2020-02-13 11:43:40","name":"EL ENO","code":"01210155","father_code":"012101","gmap_reference_latitude":"-0.066506","gmap_reference_longitude":"-76.8984047","acronym":""},"attach":[]},{"Ubication":{"id":187,"created_at":"2020-02-10 14:52:57","updated_at":"2020-02-13 11:43:40","name":"PACAYACU","code":"01210156","father_code":"012101","gmap_reference_latitude":"-0.0391475","gmap_reference_longitude":"-76.6059753","acronym":""},"attach":[]},{"Ubication":{"id":188,"created_at":"2020-02-10 14:52:57","updated_at":"2020-02-13 11:43:40","name":"JAMBELI","code":"01210157","father_code":"012101","gmap_reference_latitude":"-3.4419425","gmap_reference_longitude":"-79.9634974","acronym":""},"attach":[]},{"Ubication":{"id":189,"created_at":"2020-02-10 14:52:57","updated_at":"2020-02-13 11:43:40","name":"SANTA CECILIA","code":"01210158","father_code":"012101","gmap_reference_latitude":"0.0870501","gmap_reference_longitude":"-77.1164096","acronym":""},"attach":[]},{"Ubication":{"id":190,"created_at":"2020-02-10 14:52:57","updated_at":"2020-02-13 11:43:40","name":"10 DE AGOSTO","code":"01210160","father_code":"012101","gmap_reference_latitude":"0.19604","gmap_reference_longitude":"-76.9752627","acronym":""},"attach":[]},{"Ubication":{"id":192,"created_at":"2020-02-10 14:52:57","updated_at":"2020-02-13 11:43:40","name":"LUMBAQUI","code":"01210250","father_code":"012102","gmap_reference_latitude":"0.0443959","gmap_reference_longitude":"-77.3450163","acronym":""},"attach":[]},{"Ubication":{"id":193,"created_at":"2020-02-10 14:52:57","updated_at":"2020-02-13 11:43:40","name":"EL REVENTADOR","code":"01210251","father_code":"012102","gmap_reference_latitude":"0.0163913","gmap_reference_longitude":"-77.3801852","acronym":""},"attach":[]},{"Ubication":{"id":194,"created_at":"2020-02-10 14:52:57","updated_at":"2020-02-13 11:43:40","name":"GONZALO PIZARRO","code":"01210252","father_code":"012102","gmap_reference_latitude":"0.0163913","gmap_reference_longitude":"-77.3801852","acronym":""},"attach":[]},{"Ubication":{"id":195,"created_at":"2020-02-10 14:52:57","updated_at":"2020-02-13 11:43:40","name":"PUERTO LIBRE","code":"01210254","father_code":"012102","gmap_reference_latitude":"-0.0413936","gmap_reference_longitude":"-77.5076792","acronym":""},"attach":[]},{"Ubication":{"id":196,"created_at":"2020-02-10 14:52:57","updated_at":"2020-02-13 11:43:40","name":"PUTUMAYO","code":"012103","father_code":"0121","gmap_reference_latitude":"0.1328936","gmap_reference_longitude":"-76.408085","acronym":"PTY"},"attach":[]},{"Ubication":{"id":197,"created_at":"2020-02-10 14:52:57","updated_at":"2020-02-13 11:43:40","name":"PUERTO EL CARMEN DEL PUTUMAYO","code":"01210350","father_code":"012103","gmap_reference_latitude":"0.0793376","gmap_reference_longitude":"-76.1642432","acronym":""},"attach":[]},{"Ubication":{"id":198,"created_at":"2020-02-10 14:52:57","updated_at":"2020-02-13 11:43:40","name":"PALMA ROJA","code":"01210351","father_code":"012103","gmap_reference_latitude":"0.116667","gmap_reference_longitude":"-76.0675097","acronym":""},"attach":[]},{"Ubication":{"id":199,"created_at":"2020-02-10 14:52:57","updated_at":"2020-02-13 11:43:40","name":"PUERTO BOLÍVAR (PUERTO MONTÚFAR)","code":"01210303","father_code":"012103","gmap_reference_latitude":"-0.051223","gmap_reference_longitude":"-76.1655587","acronym":""},"attach":[]},{"Ubication":{"id":200,"created_at":"2020-02-10 14:52:57","updated_at":"2020-02-13 11:43:40","name":"PUERTO RODRIGUEZ","code":"01210353","father_code":"012103","gmap_reference_latitude":"-0.0943232","gmap_reference_longitude":"-75.5647182","acronym":""},"attach":[]},{"Ubication":{"id":201,"created_at":"2020-02-10 14:52:57","updated_at":"2020-02-13 11:43:40","name":"SANTA ELENA","code":"01210354","father_code":"012103","gmap_reference_latitude":"-2.2280961","gmap_reference_longitude":"-80.8785799","acronym":""},"attach":[]},{"Ubication":{"id":203,"created_at":"2020-02-10 14:52:57","updated_at":"2020-02-13 11:43:40","name":"SHUSHUFINDI","code":"01210450","father_code":"012104","gmap_reference_latitude":"-0.187898","gmap_reference_longitude":"-76.6606269","acronym":""},"attach":[]},{"Ubication":{"id":204,"created_at":"2020-02-10 14:52:57","updated_at":"2020-02-13 11:43:40","name":"LIMONCOCHA","code":"01210451","father_code":"012104","gmap_reference_latitude":"-0.3795342","gmap_reference_longitude":"-76.7877122","acronym":""},"attach":[]},{"Ubication":{"id":205,"created_at":"2020-02-10 14:52:57","updated_at":"2020-02-13 11:43:40","name":"PAÑACOCHA","code":"01210452","father_code":"012104","gmap_reference_latitude":"-0.424404","gmap_reference_longitude":"-76.1202087","acronym":""},"attach":[]},{"Ubication":{"id":206,"created_at":"2020-02-10 14:52:57","updated_at":"2020-02-13 11:43:40","name":"SAN ROQUE (CAB. EN SAN VICENTE)","code":"01210453","father_code":"012104","gmap_reference_latitude":"-0.187898","gmap_reference_longitude":"-76.6606269","acronym":""},"attach":[]},{"Ubication":{"id":207,"created_at":"2020-02-10 14:52:57","updated_at":"2020-02-13 11:43:40","name":"SAN PEDRO DE LOS COFANES","code":"01210454","father_code":"012104","gmap_reference_latitude":"-0.131973","gmap_reference_longitude":"-76.8644256","acronym":""},"attach":[]},{"Ubication":{"id":208,"created_at":"2020-02-10 14:52:57","updated_at":"2020-02-13 11:43:40","name":"SIETE DE JULIO","code":"01210455","father_code":"012104","gmap_reference_latitude":"-0.1862964","gmap_reference_longitude":"-76.8373638","acronym":""},"attach":[]},{"Ubication":{"id":209,"created_at":"2020-02-10 14:52:57","updated_at":"2020-02-13 11:43:40","name":"SUCUMBÍOS","code":"012105","father_code":"0121","gmap_reference_latitude":"0.0031385","gmap_reference_longitude":"-77.7229023","acronym":"SUC"},"attach":[]},{"Ubication":{"id":210,"created_at":"2020-02-10 14:52:57","updated_at":"2020-02-13 11:43:40","name":"LA BONITA","code":"01210550","father_code":"012105","gmap_reference_latitude":"0.502849","gmap_reference_longitude":"-77.6394086","acronym":""},"attach":[]},{"Ubication":{"id":211,"created_at":"2020-02-10 14:52:57","updated_at":"2020-02-13 11:43:40","name":"EL PLAYON DE SAN FRANCISCO","code":"01210551","father_code":"012105","gmap_reference_latitude":"0.5179423","gmap_reference_longitude":"-77.8215498","acronym":""},"attach":[]},{"Ubication":{"id":212,"created_at":"2020-02-10 14:52:57","updated_at":"2020-02-13 11:43:40","name":"LA SOFIA","code":"01210552","father_code":"012105","gmap_reference_latitude":"0.3284153","gmap_reference_longitude":"-77.9805184","acronym":""},"attach":[]},{"Ubication":{"id":213,"created_at":"2020-02-10 14:52:57","updated_at":"2020-02-13 11:43:40","name":"ROSA FLORIDA","code":"01210553","father_code":"012105","gmap_reference_latitude":"0.3456906","gmap_reference_longitude":"-77.633871","acronym":""},"attach":[]},{"Ubication":{"id":214,"created_at":"2020-02-10 14:52:57","updated_at":"2020-02-13 11:43:40","name":"SANTA BARBARA","code":"01210554","father_code":"012105","gmap_reference_latitude":"0.6471282","gmap_reference_longitude":"-77.5255394","acronym":""},"attach":[]},{"Ubication":{"id":215,"created_at":"2020-02-10 14:52:57","updated_at":"2020-02-13 11:43:40","name":"CASCALES","code":"012106","father_code":"0121","gmap_reference_latitude":"0.1504623","gmap_reference_longitude":"-77.5146116","acronym":"CSC"},"attach":[]},{"Ubication":{"id":216,"created_at":"2020-02-10 14:52:57","updated_at":"2020-02-13 11:43:40","name":"EL DORADO DE CASCALES","code":"01210650","father_code":"012106","gmap_reference_latitude":"0.066667","gmap_reference_longitude":"-77.2341767","acronym":""},"attach":[]},{"Ubication":{"id":217,"created_at":"2020-02-10 14:52:57","updated_at":"2020-02-13 11:43:40","name":"SANTA ROSA DE SUCUMBÍOS","code":"01210651","father_code":"012106","gmap_reference_latitude":"0.1741341","gmap_reference_longitude":"-77.2148482","acronym":""},"attach":[]},{"Ubication":{"id":218,"created_at":"2020-02-10 14:52:57","updated_at":"2020-02-13 11:43:40","name":"SEVILLA","code":"01210652","father_code":"012106","gmap_reference_latitude":"13.804407","gmap_reference_longitude":"-81.6599369","acronym":""},"attach":[]},{"Ubication":{"id":219,"created_at":"2020-02-10 14:52:57","updated_at":"2020-02-13 11:43:40","name":"NUEVA TRONCAL (CAB EN NUEVA TRONCAL)","code":"01210653","father_code":"012106","gmap_reference_latitude":"-0.044737","gmap_reference_longitude":"-77.2017467","acronym":""},"attach":[]},{"Ubication":{"id":220,"created_at":"2020-02-10 14:52:57","updated_at":"2020-02-13 11:43:40","name":"CUYABENO","code":"012107","father_code":"0121","gmap_reference_latitude":"-0.3753046","gmap_reference_longitude":"-76.184444","acronym":"CYB"},"attach":[]},{"Ubication":{"id":202,"created_at":"2020-02-10 14:52:57","updated_at":"2020-02-13 11:43:40","name":"SHUSHUFINDI","code":"012104","father_code":"0121","gmap_reference_latitude":"-0.187898","gmap_reference_longitude":"-76.6606269","acronym":"SHU"},"attach":[]},{"Ubication":{"id":221,"created_at":"2020-02-10 14:52:57","updated_at":"2020-02-13 11:43:40","name":"TARAPOA","code":"01210750","father_code":"012107","gmap_reference_latitude":"-0.1246937","gmap_reference_longitude":"-76.3599302","acronym":""},"attach":[]},{"Ubication":{"id":222,"created_at":"2020-02-10 14:52:57","updated_at":"2020-02-13 11:43:40","name":"CUYABENO","code":"01210751","father_code":"012107","gmap_reference_latitude":"-0.3753046","gmap_reference_longitude":"-76.184444","acronym":""},"attach":[]},{"Ubication":{"id":223,"created_at":"2020-02-10 14:52:57","updated_at":"2020-02-13 11:43:40","name":"AGUAS NEGRAS","code":"01210752","father_code":"012107","gmap_reference_latitude":"-0.2273635","gmap_reference_longitude":"-75.9858745","acronym":""},"attach":[]},{"Ubication":{"id":224,"created_at":"2020-02-10 14:52:57","updated_at":"2020-02-13 11:43:40","name":"ZONA DE PLANIFICACIÓN 2 - CENTRO NORTE: PICHINCHA: Quito CZ2","code":"02","father_code":"-","gmap_reference_latitude":"-0.2107854","gmap_reference_longitude":"-78.5092769","acronym":""},"attach":[]},{"Ubication":{"id":225,"created_at":"2020-02-10 14:52:57","updated_at":"2020-02-13 11:43:40","name":"PICHINCHA ","code":"0217","father_code":"02","gmap_reference_latitude":"-0.2107854","gmap_reference_longitude":"-78.5092769","acronym":"P"},"attach":[]},{"Ubication":{"id":226,"created_at":"2020-02-10 14:52:57","updated_at":"2020-02-13 11:43:40","name":"DISTRITO METROPOLITANO DE QUITO","code":"021701","father_code":"0217","gmap_reference_latitude":"-0.1865921","gmap_reference_longitude":"-78.7107503","acronym":"UIO"},"attach":[]},{"Ubication":{"id":227,"created_at":"2020-02-10 14:52:57","updated_at":"2020-02-13 11:43:40","name":"QUITO","code":"02170150","father_code":"021701","gmap_reference_latitude":"-0.1865921","gmap_reference_longitude":"-78.7107503","acronym":""},"attach":[]},{"Ubication":{"id":228,"created_at":"2020-02-10 14:52:57","updated_at":"2020-02-13 11:43:40","name":"BELISARIO QUEVEDO","code":"02170101","father_code":"021701","gmap_reference_latitude":"-0.2107854","gmap_reference_longitude":"-78.5092769","acronym":""},"attach":[]},{"Ubication":{"id":229,"created_at":"2020-02-10 14:52:57","updated_at":"2020-02-13 11:43:40","name":"CARCELÉN","code":"02170102","father_code":"021701","gmap_reference_latitude":"-0.0895857","gmap_reference_longitude":"-78.4883301","acronym":""},"attach":[]},{"Ubication":{"id":230,"created_at":"2020-02-10 14:52:57","updated_at":"2020-02-13 11:43:40","name":"CENTRO HISTÓRICO","code":"02170103","father_code":"021701","gmap_reference_latitude":"-0.2187979","gmap_reference_longitude":"-78.5209876","acronym":""},"attach":[]},{"Ubication":{"id":231,"created_at":"2020-02-10 14:52:57","updated_at":"2020-02-13 11:43:40","name":"COCHAPAMBA","code":"02170104","father_code":"021701","gmap_reference_latitude":"-0.1490749","gmap_reference_longitude":"-78.5223546","acronym":""},"attach":[]},{"Ubication":{"id":232,"created_at":"2020-02-10 14:52:57","updated_at":"2020-02-13 11:43:40","name":"COMITÉ DEL PUEBLO","code":"02170105","father_code":"021701","gmap_reference_latitude":"-0.1217646","gmap_reference_longitude":"-78.4743811","acronym":""},"attach":[]},{"Ubication":{"id":233,"created_at":"2020-02-10 14:52:57","updated_at":"2020-02-13 11:43:40","name":"COTOCOLLAO","code":"02170106","father_code":"021701","gmap_reference_latitude":"-0.2107854","gmap_reference_longitude":"-78.5092769","acronym":""},"attach":[]},{"Ubication":{"id":234,"created_at":"2020-02-10 14:52:57","updated_at":"2020-02-13 11:43:40","name":"CHILIBULO","code":"02170107","father_code":"021701","gmap_reference_latitude":"-0.2315499","gmap_reference_longitude":"-78.5423319","acronym":""},"attach":[]},{"Ubication":{"id":235,"created_at":"2020-02-10 14:52:57","updated_at":"2020-02-13 11:43:40","name":"CHILLOGALLO","code":"02170108","father_code":"021701","gmap_reference_latitude":"-0.2842332","gmap_reference_longitude":"-78.5884259","acronym":""},"attach":[]},{"Ubication":{"id":236,"created_at":"2020-02-10 14:52:57","updated_at":"2020-02-13 11:43:40","name":"CHIMBACALLE","code":"02170109","father_code":"021701","gmap_reference_latitude":"-0.2410306","gmap_reference_longitude":"-78.5204753","acronym":""},"attach":[]},{"Ubication":{"id":237,"created_at":"2020-02-10 14:52:57","updated_at":"2020-02-13 11:43:40","name":"EL CONDADO","code":"02170110","father_code":"021701","gmap_reference_latitude":"-0.1022242","gmap_reference_longitude":"-78.5429773","acronym":""},"attach":[]},{"Ubication":{"id":238,"created_at":"2020-02-10 14:52:57","updated_at":"2020-02-13 11:43:40","name":"GUAMANÍ","code":"02170111","father_code":"021701","gmap_reference_latitude":"-0.3387967","gmap_reference_longitude":"-78.6015809","acronym":""},"attach":[]},{"Ubication":{"id":239,"created_at":"2020-02-10 14:52:57","updated_at":"2020-02-13 11:43:40","name":"IÑAQUITO","code":"02170112","father_code":"021701","gmap_reference_latitude":"-0.1693703","gmap_reference_longitude":"-78.4903816","acronym":""},"attach":[]},{"Ubication":{"id":240,"created_at":"2020-02-10 14:52:57","updated_at":"2020-02-13 11:43:40","name":"ITCHIMBIA","code":"02170113","father_code":"021701","gmap_reference_latitude":"-0.223923","gmap_reference_longitude":"-78.5057119","acronym":""},"attach":[]},{"Ubication":{"id":241,"created_at":"2020-02-10 14:52:57","updated_at":"2020-02-13 11:43:40","name":"JIPIJAPA","code":"02170114","father_code":"021701","gmap_reference_latitude":"-0.2107854","gmap_reference_longitude":"-78.5092769","acronym":""},"attach":[]},{"Ubication":{"id":242,"created_at":"2020-02-10 14:52:57","updated_at":"2020-02-13 11:43:40","name":"KENNEDY","code":"02170115","father_code":"021701","gmap_reference_latitude":"-0.139869","gmap_reference_longitude":"-78.4874351","acronym":""},"attach":[]},{"Ubication":{"id":243,"created_at":"2020-02-10 14:52:57","updated_at":"2020-02-13 11:43:40","name":"LA ARGELIA","code":"02170116","father_code":"021701","gmap_reference_latitude":"-0.2815508","gmap_reference_longitude":"-78.5400223","acronym":""},"attach":[]},{"Ubication":{"id":244,"created_at":"2020-02-10 14:52:57","updated_at":"2020-02-13 11:43:40","name":"LA CONCEPCIÓN","code":"02170117","father_code":"021701","gmap_reference_latitude":"-0.2107854","gmap_reference_longitude":"-78.5092769","acronym":""},"attach":[]},{"Ubication":{"id":245,"created_at":"2020-02-10 14:52:57","updated_at":"2020-02-13 11:43:40","name":"LA ECUATORIANA","code":"02170118","father_code":"021701","gmap_reference_latitude":"-0.3089972","gmap_reference_longitude":"-78.5672256","acronym":""},"attach":[]},{"Ubication":{"id":246,"created_at":"2020-02-10 14:52:57","updated_at":"2020-02-13 11:43:40","name":"LA FERROVIARIA","code":"02170119","father_code":"021701","gmap_reference_latitude":"-0.260227","gmap_reference_longitude":"-78.5331383","acronym":""},"attach":[]},{"Ubication":{"id":247,"created_at":"2020-02-10 14:52:57","updated_at":"2020-02-13 11:43:40","name":"LA LIBERTAD","code":"02170120","father_code":"021701","gmap_reference_latitude":"-0.2107853","gmap_reference_longitude":"-78.535542","acronym":""},"attach":[]},{"Ubication":{"id":248,"created_at":"2020-02-10 14:52:57","updated_at":"2020-02-13 11:43:40","name":"LA MAGDALENA","code":"02170121","father_code":"021701","gmap_reference_latitude":"-0.2416106","gmap_reference_longitude":"-78.5317485","acronym":""},"attach":[]},{"Ubication":{"id":249,"created_at":"2020-02-10 14:52:57","updated_at":"2020-02-13 11:43:40","name":"LA MENA","code":"02170122","father_code":"021701","gmap_reference_latitude":"-0.2561157","gmap_reference_longitude":"-78.5653192","acronym":""},"attach":[]},{"Ubication":{"id":250,"created_at":"2020-02-10 14:52:57","updated_at":"2020-02-13 11:43:40","name":"MARISCAL SUCRE","code":"02170123","father_code":"021701","gmap_reference_latitude":"-0.2107853","gmap_reference_longitude":"-78.535542","acronym":""},"attach":[]},{"Ubication":{"id":251,"created_at":"2020-02-10 14:52:57","updated_at":"2020-02-13 11:43:40","name":"PONCEANO","code":"02170124","father_code":"021701","gmap_reference_latitude":"-0.1223254","gmap_reference_longitude":"-78.4956524","acronym":""},"attach":[]},{"Ubication":{"id":252,"created_at":"2020-02-10 14:52:57","updated_at":"2020-02-13 11:43:40","name":"PUENGASÍ","code":"02170125","father_code":"021701","gmap_reference_latitude":"-0.2107854","gmap_reference_longitude":"-78.5092769","acronym":""},"attach":[]},{"Ubication":{"id":253,"created_at":"2020-02-10 14:52:57","updated_at":"2020-02-13 11:43:40","name":"QUITUMBE","code":"02170126","father_code":"021701","gmap_reference_latitude":"-0.2107854","gmap_reference_longitude":"-78.5092769","acronym":""},"attach":[]},{"Ubication":{"id":254,"created_at":"2020-02-10 14:52:57","updated_at":"2020-02-13 11:43:40","name":"RUMIPAMBA","code":"02170127","father_code":"021701","gmap_reference_latitude":"-0.1803124","gmap_reference_longitude":"-78.5208309","acronym":""},"attach":[]},{"Ubication":{"id":255,"created_at":"2020-02-10 14:52:57","updated_at":"2020-02-13 11:43:40","name":"SAN BARTOLO","code":"02170128","father_code":"021701","gmap_reference_latitude":"-0.2715672","gmap_reference_longitude":"-78.5370992","acronym":""},"attach":[]},{"Ubication":{"id":256,"created_at":"2020-02-10 14:52:57","updated_at":"2020-02-13 11:43:40","name":"SAN ISIDRO DEL INCA","code":"02170129","father_code":"021701","gmap_reference_latitude":"-0.142813","gmap_reference_longitude":"-78.4701996","acronym":""},"attach":[]},{"Ubication":{"id":257,"created_at":"2020-02-10 14:52:57","updated_at":"2020-02-13 11:43:40","name":"SAN JUAN","code":"02170130","father_code":"021701","gmap_reference_latitude":"-0.2107854","gmap_reference_longitude":"-78.5092769","acronym":""},"attach":[]},{"Ubication":{"id":258,"created_at":"2020-02-10 14:52:57","updated_at":"2020-02-13 11:43:40","name":"SOLANDA","code":"02170131","father_code":"021701","gmap_reference_latitude":"-0.2695127","gmap_reference_longitude":"-78.5492958","acronym":""},"attach":[]},{"Ubication":{"id":259,"created_at":"2020-02-10 14:52:57","updated_at":"2020-02-13 11:43:40","name":"TURUBAMBA","code":"02170132","father_code":"021701","gmap_reference_latitude":"-0.300783","gmap_reference_longitude":"-78.5407965","acronym":""},"attach":[]},{"Ubication":{"id":260,"created_at":"2020-02-10 14:52:57","updated_at":"2020-02-13 11:43:40","name":"ALANGASI","code":"02170151","father_code":"021701","gmap_reference_latitude":"-0.303744","gmap_reference_longitude":"-78.4291227","acronym":""},"attach":[]},{"Ubication":{"id":261,"created_at":"2020-02-10 14:52:57","updated_at":"2020-02-13 11:43:40","name":"AMAGUAÑA","code":"02170152","father_code":"021701","gmap_reference_latitude":"-0.2107854","gmap_reference_longitude":"-78.5092769","acronym":""},"attach":[]},{"Ubication":{"id":262,"created_at":"2020-02-10 14:52:57","updated_at":"2020-02-13 11:43:40","name":"ATAHUALPA (HABASPAMBA)","code":"02170153","father_code":"021701","gmap_reference_latitude":"-0.2107854","gmap_reference_longitude":"-78.5092769","acronym":""},"attach":[]},{"Ubication":{"id":263,"created_at":"2020-02-10 14:52:57","updated_at":"2020-02-13 11:43:40","name":"CALACALI","code":"02170154","father_code":"021701","gmap_reference_latitude":"-0.0001609","gmap_reference_longitude":"-78.5226667","acronym":""},"attach":[]},{"Ubication":{"id":264,"created_at":"2020-02-10 14:52:57","updated_at":"2020-02-13 11:43:40","name":"CALDERON (CARAPUNGO)","code":"02170155","father_code":"021701","gmap_reference_latitude":"-0.2107854","gmap_reference_longitude":"-78.5092769","acronym":""},"attach":[]},{"Ubication":{"id":265,"created_at":"2020-02-10 14:52:57","updated_at":"2020-02-13 11:43:40","name":"CONOCOTO","code":"02170156","father_code":"021701","gmap_reference_latitude":"-0.2866782","gmap_reference_longitude":"-78.522579","acronym":""},"attach":[]},{"Ubication":{"id":266,"created_at":"2020-02-10 14:52:57","updated_at":"2020-02-13 11:43:40","name":"CUMBAYA","code":"02170157","father_code":"021701","gmap_reference_latitude":"-0.2107854","gmap_reference_longitude":"-78.5092769","acronym":""},"attach":[]},{"Ubication":{"id":267,"created_at":"2020-02-10 14:52:57","updated_at":"2020-02-13 11:43:40","name":"CHAVEZPAMBA","code":"02170158","father_code":"021701","gmap_reference_latitude":"0.1257383","gmap_reference_longitude":"-78.4353517","acronym":""},"attach":[]},{"Ubication":{"id":268,"created_at":"2020-02-10 14:52:57","updated_at":"2020-02-13 11:43:40","name":"CHECA (CHILPA)","code":"02170159","father_code":"021701","gmap_reference_latitude":"-0.1546609","gmap_reference_longitude":"-78.3333182","acronym":""},"attach":[]},{"Ubication":{"id":269,"created_at":"2020-02-10 14:52:57","updated_at":"2020-02-13 11:43:40","name":"EL QUINCHE","code":"02170160","father_code":"021701","gmap_reference_latitude":"-0.1112938","gmap_reference_longitude":"-78.3042488","acronym":""},"attach":[]},{"Ubication":{"id":270,"created_at":"2020-02-10 14:52:57","updated_at":"2020-02-13 11:43:40","name":"GUALEA","code":"02170161","father_code":"021701","gmap_reference_latitude":"-0.2845043","gmap_reference_longitude":"-78.527191","acronym":""},"attach":[]},{"Ubication":{"id":271,"created_at":"2020-02-10 14:52:57","updated_at":"2020-02-13 11:43:40","name":"GUANGOPOLO","code":"02170162","father_code":"021701","gmap_reference_latitude":"-0.25828","gmap_reference_longitude":"-78.4549431","acronym":""},"attach":[]},{"Ubication":{"id":272,"created_at":"2020-02-10 14:52:57","updated_at":"2020-02-13 11:43:40","name":"GUAYLLABAMBA","code":"02170163","father_code":"021701","gmap_reference_latitude":"-0.0672515","gmap_reference_longitude":"-78.3679999","acronym":""},"attach":[]},{"Ubication":{"id":273,"created_at":"2020-02-10 14:52:57","updated_at":"2020-02-13 11:43:40","name":"LA MERCED","code":"02170164","father_code":"021701","gmap_reference_latitude":"-0.3030013","gmap_reference_longitude":"-78.5722744","acronym":""},"attach":[]},{"Ubication":{"id":274,"created_at":"2020-02-10 14:52:57","updated_at":"2020-02-13 11:43:40","name":"LLANO CHICO","code":"02170165","father_code":"021701","gmap_reference_latitude":"-0.1319545","gmap_reference_longitude":"-78.4692944","acronym":""},"attach":[]},{"Ubication":{"id":275,"created_at":"2020-02-10 14:52:57","updated_at":"2020-02-13 11:43:40","name":"LLOA","code":"02170166","father_code":"021701","gmap_reference_latitude":"-0.2107854","gmap_reference_longitude":"-78.5092769","acronym":""},"attach":[]},{"Ubication":{"id":276,"created_at":"2020-02-10 14:52:57","updated_at":"2020-02-13 11:43:40","name":"NANEGAL","code":"02170168","father_code":"021701","gmap_reference_latitude":"0.1312869","gmap_reference_longitude":"-78.6939477","acronym":""},"attach":[]},{"Ubication":{"id":277,"created_at":"2020-02-10 14:52:57","updated_at":"2020-02-13 11:43:40","name":"NANEGALITO","code":"02170169","father_code":"021701","gmap_reference_latitude":"0.062176","gmap_reference_longitude":"-78.6995317","acronym":""},"attach":[]},{"Ubication":{"id":278,"created_at":"2020-02-10 14:52:57","updated_at":"2020-02-13 11:43:40","name":"NAYON","code":"02170170","father_code":"021701","gmap_reference_latitude":"-0.1577503","gmap_reference_longitude":"-78.4564787","acronym":""},"attach":[]},{"Ubication":{"id":279,"created_at":"2020-02-10 14:52:57","updated_at":"2020-02-13 11:43:40","name":"NONO","code":"02170171","father_code":"021701","gmap_reference_latitude":"-0.2107854","gmap_reference_longitude":"-78.5092769","acronym":""},"attach":[]},{"Ubication":{"id":280,"created_at":"2020-02-10 14:52:57","updated_at":"2020-02-13 11:43:40","name":"PACTO","code":"02170172","father_code":"021701","gmap_reference_latitude":"-0.2802688","gmap_reference_longitude":"-78.5232124","acronym":""},"attach":[]},{"Ubication":{"id":281,"created_at":"2020-02-10 14:52:57","updated_at":"2020-02-13 11:43:40","name":"PERUCHO","code":"02170174","father_code":"021701","gmap_reference_latitude":"-0.2107854","gmap_reference_longitude":"-78.5092769","acronym":""},"attach":[]},{"Ubication":{"id":282,"created_at":"2020-02-10 14:52:57","updated_at":"2020-02-13 11:43:40","name":"PIFO","code":"02170175","father_code":"021701","gmap_reference_latitude":"-0.2336024","gmap_reference_longitude":"-78.3469258","acronym":""},"attach":[]},{"Ubication":{"id":283,"created_at":"2020-02-10 14:52:57","updated_at":"2020-02-13 11:43:40","name":"PINTAG","code":"02170176","father_code":"021701","gmap_reference_latitude":"-0.3738972","gmap_reference_longitude":"-78.3893182","acronym":""},"attach":[]},{"Ubication":{"id":284,"created_at":"2020-02-10 14:52:57","updated_at":"2020-02-13 11:43:40","name":"POMASQUI","code":"02170177","father_code":"021701","gmap_reference_latitude":"-0.0386237","gmap_reference_longitude":"-78.4938822","acronym":""},"attach":[]},{"Ubication":{"id":285,"created_at":"2020-02-10 14:52:57","updated_at":"2020-02-13 11:43:40","name":"PUELLARO","code":"02170178","father_code":"021701","gmap_reference_latitude":"0.066667","gmap_reference_longitude":"-78.4175097","acronym":""},"attach":[]},{"Ubication":{"id":286,"created_at":"2020-02-10 14:52:57","updated_at":"2020-02-13 11:43:40","name":"PUEMBO","code":"02170179","father_code":"021701","gmap_reference_latitude":"-0.2107854","gmap_reference_longitude":"-78.5092769","acronym":""},"attach":[]},{"Ubication":{"id":287,"created_at":"2020-02-10 14:52:57","updated_at":"2020-02-13 11:43:40","name":"SAN ANTONIO","code":"02170180","father_code":"021701","gmap_reference_latitude":"-0.0005579","gmap_reference_longitude":"-78.4668877","acronym":""},"attach":[]},{"Ubication":{"id":288,"created_at":"2020-02-10 14:52:57","updated_at":"2020-02-13 11:43:40","name":"SAN JOSE DE MINAS","code":"02170181","father_code":"021701","gmap_reference_latitude":"0.1828444","gmap_reference_longitude":"-78.6542534","acronym":""},"attach":[]},{"Ubication":{"id":289,"created_at":"2020-02-10 14:52:57","updated_at":"2020-02-13 11:43:40","name":"TABABELA","code":"02170183","father_code":"021701","gmap_reference_latitude":"-0.1497206","gmap_reference_longitude":"-78.4279187","acronym":""},"attach":[]},{"Ubication":{"id":290,"created_at":"2020-02-10 14:52:57","updated_at":"2020-02-13 11:43:40","name":"TUMBACO","code":"02170184","father_code":"021701","gmap_reference_latitude":"-0.2144903","gmap_reference_longitude":"-78.432878","acronym":""},"attach":[]},{"Ubication":{"id":291,"created_at":"2020-02-10 14:52:57","updated_at":"2020-02-13 11:43:40","name":"YARUQUI","code":"02170185","father_code":"021701","gmap_reference_latitude":"-0.1657722","gmap_reference_longitude":"-78.3251418","acronym":""},"attach":[]},{"Ubication":{"id":292,"created_at":"2020-02-10 14:52:57","updated_at":"2020-02-13 11:43:40","name":"ZAMBIZA","code":"02170186","father_code":"021701","gmap_reference_latitude":"-0.1491092","gmap_reference_longitude":"-78.4540345","acronym":""},"attach":[]},{"Ubication":{"id":293,"created_at":"2020-02-10 14:52:57","updated_at":"2020-02-13 11:43:40","name":"CAYAMBE","code":"021702","father_code":"0217","gmap_reference_latitude":"0.0367141","gmap_reference_longitude":"-78.165268","acronym":"CAY"},"attach":[]},{"Ubication":{"id":294,"created_at":"2020-02-10 14:52:57","updated_at":"2020-02-13 11:43:40","name":"CAYAMBE (RURAL)","code":"02170250","father_code":"021702","gmap_reference_latitude":"0.0367141","gmap_reference_longitude":"-78.165268","acronym":""},"attach":[]},{"Ubication":{"id":295,"created_at":"2020-02-10 14:52:57","updated_at":"2020-02-13 11:43:40","name":"CAYAMBE","code":"02170202","father_code":"021702","gmap_reference_latitude":"0.0367141","gmap_reference_longitude":"-78.165268","acronym":""},"attach":[]},{"Ubication":{"id":296,"created_at":"2020-02-10 14:52:57","updated_at":"2020-02-13 11:43:40","name":"JUAN MONTALVO","code":"02170203","father_code":"021702","gmap_reference_latitude":"0.0402829","gmap_reference_longitude":"-78.1439584","acronym":""},"attach":[]},{"Ubication":{"id":297,"created_at":"2020-02-10 14:52:57","updated_at":"2020-02-13 11:43:40","name":"ASCAZUBI","code":"02170251","father_code":"021702","gmap_reference_latitude":"0.0413943","gmap_reference_longitude":"-78.1461246","acronym":""},"attach":[]},{"Ubication":{"id":298,"created_at":"2020-02-10 14:52:57","updated_at":"2020-02-13 11:43:40","name":"CANGAHUA","code":"02170252","father_code":"021702","gmap_reference_latitude":"-0.0874159","gmap_reference_longitude":"-78.2803786","acronym":""},"attach":[]},{"Ubication":{"id":299,"created_at":"2020-02-10 14:52:57","updated_at":"2020-02-13 11:43:40","name":"OLMEDO (PESILLO)","code":"02170253","father_code":"021702","gmap_reference_latitude":"-0.2107854","gmap_reference_longitude":"-78.5092769","acronym":""},"attach":[]},{"Ubication":{"id":300,"created_at":"2020-02-10 14:52:57","updated_at":"2020-02-13 11:43:40","name":"OTON","code":"02170254","father_code":"021702","gmap_reference_latitude":"-0.2107854","gmap_reference_longitude":"-78.5092769","acronym":""},"attach":[]},{"Ubication":{"id":301,"created_at":"2020-02-10 14:52:57","updated_at":"2020-02-13 11:43:40","name":"SANTA ROSA DE CUZUBAMBA","code":"02170255","father_code":"021702","gmap_reference_latitude":"-0.2107854","gmap_reference_longitude":"-78.5092769","acronym":""},"attach":[]},{"Ubication":{"id":302,"created_at":"2020-02-10 14:52:57","updated_at":"2020-02-13 11:43:40","name":"SAN JOSE DE AYORA","code":"02170256","father_code":"021702","gmap_reference_latitude":"-0.2107854","gmap_reference_longitude":"-78.5092769","acronym":""},"attach":[]},{"Ubication":{"id":304,"created_at":"2020-02-10 14:52:57","updated_at":"2020-02-13 11:43:40","name":"MACHACHI","code":"02170350","father_code":"021703","gmap_reference_latitude":"-0.515063","gmap_reference_longitude":"-78.5885741","acronym":""},"attach":[]},{"Ubication":{"id":305,"created_at":"2020-02-10 14:52:57","updated_at":"2020-02-13 11:43:40","name":"ALOAG","code":"02170351","father_code":"021703","gmap_reference_latitude":"-0.4679952","gmap_reference_longitude":"-78.5895395","acronym":""},"attach":[]},{"Ubication":{"id":306,"created_at":"2020-02-10 14:52:57","updated_at":"2020-02-13 11:43:40","name":"ALOASI","code":"02170352","father_code":"021703","gmap_reference_latitude":"-0.5193439","gmap_reference_longitude":"-78.5888207","acronym":""},"attach":[]},{"Ubication":{"id":307,"created_at":"2020-02-10 14:52:57","updated_at":"2020-02-13 11:43:40","name":"CUTUGLAHUA","code":"02170353","father_code":"021703","gmap_reference_latitude":"-0.3754909","gmap_reference_longitude":"-78.6434445","acronym":""},"attach":[]},{"Ubication":{"id":309,"created_at":"2020-02-10 14:52:57","updated_at":"2020-02-13 11:43:40","name":"MANUEL CORNEJO ASTORGA (TANDAPI)","code":"02170355","father_code":"021703","gmap_reference_latitude":"-0.413149","gmap_reference_longitude":"-78.939026","acronym":""},"attach":[]},{"Ubication":{"id":310,"created_at":"2020-02-10 14:52:57","updated_at":"2020-02-13 11:43:40","name":"TAMBILLO","code":"02170356","father_code":"021703","gmap_reference_latitude":"-0.4059758","gmap_reference_longitude":"-78.5566343","acronym":""},"attach":[]},{"Ubication":{"id":311,"created_at":"2020-02-10 14:52:57","updated_at":"2020-02-13 11:43:40","name":"UYUMBICHO","code":"02170357","father_code":"021703","gmap_reference_latitude":"-0.4106993","gmap_reference_longitude":"-78.585312","acronym":""},"attach":[]},{"Ubication":{"id":312,"created_at":"2020-02-10 14:52:57","updated_at":"2020-02-13 11:43:40","name":"PEDRO MONCAYO","code":"021704","father_code":"0217","gmap_reference_latitude":"0.0595026","gmap_reference_longitude":"-78.4237919","acronym":"PMY"},"attach":[]},{"Ubication":{"id":313,"created_at":"2020-02-10 14:52:57","updated_at":"2020-02-13 11:43:40","name":"TABACUNDO","code":"02170450","father_code":"021704","gmap_reference_latitude":"0.0390101","gmap_reference_longitude":"-78.2398876","acronym":""},"attach":[]},{"Ubication":{"id":314,"created_at":"2020-02-10 14:52:57","updated_at":"2020-02-13 11:43:40","name":"LA ESPERANZA","code":"02170451","father_code":"021704","gmap_reference_latitude":"-0.2107854","gmap_reference_longitude":"-78.5092769","acronym":""},"attach":[]},{"Ubication":{"id":315,"created_at":"2020-02-10 14:52:57","updated_at":"2020-02-13 11:43:40","name":"MALCHINGUI","code":"02170452","father_code":"021704","gmap_reference_latitude":"0.0658653","gmap_reference_longitude":"-78.4001136","acronym":""},"attach":[]},{"Ubication":{"id":316,"created_at":"2020-02-10 14:52:57","updated_at":"2020-02-13 11:43:40","name":"TOCACHI","code":"02170453","father_code":"021704","gmap_reference_latitude":"0.0667349","gmap_reference_longitude":"-78.3745301","acronym":""},"attach":[]},{"Ubication":{"id":317,"created_at":"2020-02-10 14:52:57","updated_at":"2020-02-13 11:43:40","name":"TUPIGACHI","code":"02170454","father_code":"021704","gmap_reference_latitude":"0.09514","gmap_reference_longitude":"-78.2374503","acronym":""},"attach":[]},{"Ubication":{"id":318,"created_at":"2020-02-10 14:52:57","updated_at":"2020-02-13 11:43:40","name":"RUMIÑAHUI","code":"021705","father_code":"0217","gmap_reference_latitude":"-0.1262081","gmap_reference_longitude":"-78.4897758","acronym":"RMH"},"attach":[]},{"Ubication":{"id":319,"created_at":"2020-02-10 14:52:57","updated_at":"2020-02-13 11:43:40","name":"SANGOLQUI","code":"02170550","father_code":"021705","gmap_reference_latitude":"-0.3360141","gmap_reference_longitude":"-78.4727037","acronym":""},"attach":[]},{"Ubication":{"id":320,"created_at":"2020-02-10 14:52:57","updated_at":"2020-02-13 11:43:40","name":"SAN PEDRO DE TABOADA","code":"02170502","father_code":"021705","gmap_reference_latitude":"-0.3360141","gmap_reference_longitude":"-78.4727037","acronym":""},"attach":[]},{"Ubication":{"id":321,"created_at":"2020-02-10 14:52:57","updated_at":"2020-02-13 11:43:40","name":"SAN RAFAEL","code":"02170503","father_code":"021705","gmap_reference_latitude":"-0.3333927","gmap_reference_longitude":"-78.4727037","acronym":""},"attach":[]},{"Ubication":{"id":322,"created_at":"2020-02-10 14:52:57","updated_at":"2020-02-13 11:43:40","name":"FAJARDO","code":"02170504","father_code":"021705","gmap_reference_latitude":"-0.1262081","gmap_reference_longitude":"-78.4897758","acronym":""},"attach":[]},{"Ubication":{"id":323,"created_at":"2020-02-10 14:52:57","updated_at":"2020-02-13 11:43:40","name":"COTOGCHOA","code":"02170551","father_code":"021705","gmap_reference_latitude":"-0.3507319","gmap_reference_longitude":"-78.4760113","acronym":""},"attach":[]},{"Ubication":{"id":324,"created_at":"2020-02-10 14:52:57","updated_at":"2020-02-13 11:43:40","name":"RUMIPAMBA","code":"02170552","father_code":"021705","gmap_reference_latitude":"-0.1803124","gmap_reference_longitude":"-78.5208309","acronym":""},"attach":[]},{"Ubication":{"id":325,"created_at":"2020-02-10 14:52:57","updated_at":"2020-02-13 11:43:40","name":"SAN MIGUEL DE LOS BANCOS","code":"021707","father_code":"0217","gmap_reference_latitude":"0.0223371","gmap_reference_longitude":"-78.9014483","acronym":"SMB"},"attach":[]},{"Ubication":{"id":328,"created_at":"2020-02-10 14:52:57","updated_at":"2020-02-13 11:43:40","name":"PEDRO VICENTE MALDONADO","code":"021708","father_code":"0217","gmap_reference_latitude":"0.0815391","gmap_reference_longitude":"-79.0577459","acronym":"PVM"},"attach":[]},{"Ubication":{"id":332,"created_at":"2020-02-10 14:52:57","updated_at":"2020-02-13 11:43:40","name":"NAPO","code":"0215","father_code":"02","gmap_reference_latitude":"-0.6069707","gmap_reference_longitude":"-78.289423","acronym":"N"},"attach":[]},{"Ubication":{"id":333,"created_at":"2020-02-10 14:52:57","updated_at":"2020-02-13 11:43:40","name":"TENA","code":"021501","father_code":"0215","gmap_reference_latitude":"-0.9974738","gmap_reference_longitude":"-77.8323843","acronym":"TEN"},"attach":[]},{"Ubication":{"id":334,"created_at":"2020-02-10 14:52:57","updated_at":"2020-02-13 11:43:40","name":"TENA","code":"02150150","father_code":"021501","gmap_reference_latitude":"-0.9974738","gmap_reference_longitude":"-77.8323843","acronym":""},"attach":[]},{"Ubication":{"id":335,"created_at":"2020-02-10 14:52:57","updated_at":"2020-02-13 11:43:40","name":"AHUANO","code":"02150151","father_code":"021501","gmap_reference_latitude":"-1.053483","gmap_reference_longitude":"-77.5659487","acronym":""},"attach":[]},{"Ubication":{"id":336,"created_at":"2020-02-10 14:52:57","updated_at":"2020-02-13 11:43:40","name":"CHONTAPUNTA","code":"02150153","father_code":"021501","gmap_reference_latitude":"-0.914656","gmap_reference_longitude":"-77.3521197","acronym":""},"attach":[]},{"Ubication":{"id":337,"created_at":"2020-02-10 14:52:57","updated_at":"2020-02-13 11:43:40","name":"PANO","code":"02150154","father_code":"021501","gmap_reference_latitude":"-1.05","gmap_reference_longitude":"-77.8841767","acronym":""},"attach":[]},{"Ubication":{"id":338,"created_at":"2020-02-10 14:52:57","updated_at":"2020-02-13 11:43:40","name":"PUERTO MISAHUALLI","code":"02150155","father_code":"021501","gmap_reference_latitude":"-1.033088","gmap_reference_longitude":"-77.6737261","acronym":""},"attach":[]},{"Ubication":{"id":339,"created_at":"2020-02-10 14:52:57","updated_at":"2020-02-13 11:43:40","name":"PUERTO NAPO","code":"02150156","father_code":"021501","gmap_reference_latitude":"-1.031838","gmap_reference_longitude":"-77.7484667","acronym":""},"attach":[]},{"Ubication":{"id":340,"created_at":"2020-02-10 14:52:57","updated_at":"2020-02-13 11:43:40","name":"TALAG","code":"02150157","father_code":"021501","gmap_reference_latitude":"-1.0512763","gmap_reference_longitude":"-78.4057859","acronym":""},"attach":[]},{"Ubication":{"id":341,"created_at":"2020-02-10 14:52:57","updated_at":"2020-02-13 11:43:40","name":"SAN JUAN DE MUYUNA","code":"02150158","father_code":"021501","gmap_reference_latitude":"-0.9309257","gmap_reference_longitude":"-78.0773636","acronym":""},"attach":[]},{"Ubication":{"id":342,"created_at":"2020-02-10 14:52:57","updated_at":"2020-02-13 11:43:40","name":"ARCHIDONA","code":"021502","father_code":"0215","gmap_reference_latitude":"-0.9075785","gmap_reference_longitude":"-77.8414832","acronym":"ACH"},"attach":[]},{"Ubication":{"id":343,"created_at":"2020-02-10 14:52:57","updated_at":"2020-02-13 11:43:40","name":"ARCHIDONA","code":"02150350","father_code":"021502","gmap_reference_latitude":"-0.9075785","gmap_reference_longitude":"-77.8414832","acronym":""},"attach":[]},{"Ubication":{"id":344,"created_at":"2020-02-10 14:52:57","updated_at":"2020-02-13 11:43:40","name":"COTUNDO","code":"02150352","father_code":"021502","gmap_reference_latitude":"-0.844243","gmap_reference_longitude":"-77.7998114","acronym":""},"attach":[]},{"Ubication":{"id":345,"created_at":"2020-02-10 14:52:57","updated_at":"2020-02-13 11:43:40","name":"SAN PABLO DE USHPAYACU","code":"02150354","father_code":"021502","gmap_reference_latitude":"-0.895934","gmap_reference_longitude":"-77.8423702","acronym":""},"attach":[]},{"Ubication":{"id":346,"created_at":"2020-02-10 14:52:57","updated_at":"2020-02-13 11:43:40","name":"HATUN SUMAKU","code":"02150356","father_code":"021502","gmap_reference_latitude":"-0.6545855","gmap_reference_longitude":"-77.7367768","acronym":""},"attach":[]},{"Ubication":{"id":347,"created_at":"2020-02-10 14:52:57","updated_at":"2020-02-13 11:43:40","name":"EL CHACO","code":"021504","father_code":"0215","gmap_reference_latitude":"-0.3371838","gmap_reference_longitude":"-77.8195954","acronym":"CHC"},"attach":[]},{"Ubication":{"id":348,"created_at":"2020-02-10 14:52:57","updated_at":"2020-02-13 11:43:40","name":"EL CHACO","code":"02150450","father_code":"021503","gmap_reference_latitude":"-0.3371838","gmap_reference_longitude":"-77.8195954","acronym":""},"attach":[]},{"Ubication":{"id":349,"created_at":"2020-02-10 14:52:57","updated_at":"2020-02-13 11:43:40","name":"GONZALO DIAZ DE PINEDA (EL BOMBON)","code":"02150451","father_code":"021503","gmap_reference_latitude":"-0.2703392","gmap_reference_longitude":"-77.8040011","acronym":""},"attach":[]},{"Ubication":{"id":350,"created_at":"2020-02-10 14:52:57","updated_at":"2020-02-13 11:43:40","name":"LINARES","code":"02150452","father_code":"021503","gmap_reference_latitude":"-0.4058041","gmap_reference_longitude":"-77.8267328","acronym":""},"attach":[]},{"Ubication":{"id":351,"created_at":"2020-02-10 14:52:57","updated_at":"2020-02-13 11:43:40","name":"OYACACHI","code":"02150453","father_code":"021503","gmap_reference_latitude":"-0.212386","gmap_reference_longitude":"-78.0953827","acronym":""},"attach":[]},{"Ubication":{"id":352,"created_at":"2020-02-10 14:52:57","updated_at":"2020-02-13 11:43:40","name":"SANTA ROSA","code":"02150454","father_code":"021503","gmap_reference_latitude":"-0.310798","gmap_reference_longitude":"-77.8027197","acronym":""},"attach":[]},{"Ubication":{"id":353,"created_at":"2020-02-10 14:52:57","updated_at":"2020-02-13 11:43:40","name":"SARDINAS","code":"02150455","father_code":"021503","gmap_reference_latitude":"-0.384835","gmap_reference_longitude":"-77.8553317","acronym":""},"attach":[]},{"Ubication":{"id":354,"created_at":"2020-02-10 14:52:57","updated_at":"2020-02-13 11:43:40","name":"QUIJOS","code":"021504","father_code":"0215","gmap_reference_latitude":"-0.452013","gmap_reference_longitude":"-78.1878554","acronym":"QJS"},"attach":[]},{"Ubication":{"id":355,"created_at":"2020-02-10 14:52:57","updated_at":"2020-02-13 11:43:40","name":"BAEZA","code":"02150750","father_code":"021504","gmap_reference_latitude":"-0.4634807","gmap_reference_longitude":"-77.8992892","acronym":""},"attach":[]},{"Ubication":{"id":356,"created_at":"2020-02-10 14:52:57","updated_at":"2020-02-13 11:43:40","name":"COSANGA","code":"02150751","father_code":"021504","gmap_reference_latitude":"-0.5789181","gmap_reference_longitude":"-77.8690338","acronym":""},"attach":[]},{"Ubication":{"id":357,"created_at":"2020-02-10 14:52:57","updated_at":"2020-02-13 11:43:40","name":"CUYUJA","code":"02150752","father_code":"021504","gmap_reference_latitude":"-0.4063583","gmap_reference_longitude":"-78.212369","acronym":""},"attach":[]},{"Ubication":{"id":358,"created_at":"2020-02-10 14:52:57","updated_at":"2020-02-13 11:43:40","name":"PAPALLACTA","code":"02150753","father_code":"021504","gmap_reference_latitude":"-0.3772231","gmap_reference_longitude":"-78.1461811","acronym":""},"attach":[]},{"Ubication":{"id":359,"created_at":"2020-02-10 14:52:57","updated_at":"2020-02-13 11:43:40","name":"SAN FRANCISCO DE BORJA (VIRGILIO DAVILA)","code":"02150754","father_code":"021504","gmap_reference_latitude":"-0.439215","gmap_reference_longitude":"-78.0089525","acronym":""},"attach":[]},{"Ubication":{"id":360,"created_at":"2020-02-10 14:52:57","updated_at":"2020-02-13 11:43:40","name":"SUMACO","code":"02150756","father_code":"021504","gmap_reference_latitude":"-0.466667","gmap_reference_longitude":"-77.6175097","acronym":""},"attach":[]},{"Ubication":{"id":361,"created_at":"2020-02-10 14:52:57","updated_at":"2020-02-13 11:43:40","name":"CARLOS JULIO AROSEMENA TOLA","code":"021509","father_code":"0215","gmap_reference_latitude":"-1.165629","gmap_reference_longitude":"-77.8607082","acronym":"CJA"},"attach":[]},{"Ubication":{"id":363,"created_at":"2020-02-10 14:52:57","updated_at":"2020-02-13 11:43:40","name":"ORELLANA","code":"0222","father_code":"02","gmap_reference_latitude":"-0.8056109","gmap_reference_longitude":"-77.528992","acronym":"Q"},"attach":[]},{"Ubication":{"id":364,"created_at":"2020-02-10 14:52:57","updated_at":"2020-02-13 11:43:40","name":"ORELLANA","code":"022201","father_code":"0222","gmap_reference_latitude":"-0.8056109","gmap_reference_longitude":"-77.528992","acronym":"ORL"},"attach":[]},{"Ubication":{"id":365,"created_at":"2020-02-10 14:52:57","updated_at":"2020-02-13 11:43:40","name":"PUERTO FRANCISCO DE ORELLANA (EL COCA)","code":"02220150","father_code":"022201","gmap_reference_latitude":"-0.4375128","gmap_reference_longitude":"-77.1291541","acronym":""},"attach":[]},{"Ubication":{"id":366,"created_at":"2020-02-10 14:52:57","updated_at":"2020-02-13 11:43:40","name":"DAYUMA","code":"02220151","father_code":"022201","gmap_reference_latitude":"-0.671414","gmap_reference_longitude":"-76.8992387","acronym":""},"attach":[]},{"Ubication":{"id":367,"created_at":"2020-02-10 14:52:57","updated_at":"2020-02-13 11:43:40","name":"TARACOA (NUEVA ESPERANZA: YUCA)","code":"02220152","father_code":"022201","gmap_reference_latitude":"-0.5526658","gmap_reference_longitude":"-76.9282074","acronym":""},"attach":[]},{"Ubication":{"id":368,"created_at":"2020-02-10 14:52:57","updated_at":"2020-02-13 11:43:40","name":"ALEJANDRO LABAKA","code":"02220153","father_code":"022201","gmap_reference_latitude":"-0.6118802","gmap_reference_longitude":"-76.803775","acronym":""},"attach":[]},{"Ubication":{"id":369,"created_at":"2020-02-10 14:52:57","updated_at":"2020-02-13 11:43:40","name":"EL DORADO","code":"02220154","father_code":"022201","gmap_reference_latitude":"-0.4877961","gmap_reference_longitude":"-77.0130037","acronym":""},"attach":[]},{"Ubication":{"id":370,"created_at":"2020-02-10 14:52:57","updated_at":"2020-02-13 11:43:40","name":"EL EDEN","code":"02220155","father_code":"022201","gmap_reference_latitude":"-0.5789707","gmap_reference_longitude":"-76.4695147","acronym":""},"attach":[]},{"Ubication":{"id":371,"created_at":"2020-02-10 14:52:57","updated_at":"2020-02-13 11:43:40","name":"GARCIA MORENO","code":"02220156","father_code":"022201","gmap_reference_latitude":"-0.5268338","gmap_reference_longitude":"-77.0186947","acronym":""},"attach":[]},{"Ubication":{"id":372,"created_at":"2020-02-10 14:52:57","updated_at":"2020-02-13 11:43:40","name":"INES ARANGO (CAB. EN WESTERN)","code":"02220157","father_code":"022201","gmap_reference_latitude":"-0.9811868","gmap_reference_longitude":"-77.1182256","acronym":""},"attach":[]},{"Ubication":{"id":373,"created_at":"2020-02-10 14:52:57","updated_at":"2020-02-13 11:43:40","name":"LA BELLEZA","code":"02220158","father_code":"022201","gmap_reference_latitude":"-0.4677694","gmap_reference_longitude":"-76.9970369","acronym":""},"attach":[]},{"Ubication":{"id":374,"created_at":"2020-02-10 14:52:57","updated_at":"2020-02-13 11:43:40","name":"NUEVO PARAISO (CAB. EN UNION )","code":"02220159","father_code":"022201","gmap_reference_latitude":"-0.2107854","gmap_reference_longitude":"-78.5092769","acronym":""},"attach":[]},{"Ubication":{"id":375,"created_at":"2020-02-10 14:52:57","updated_at":"2020-02-13 11:43:40","name":"SAN JOSE DE GUAYUSA","code":"02220160","father_code":"022201","gmap_reference_latitude":"-0.1931726","gmap_reference_longitude":"-77.3020762","acronym":""},"attach":[]},{"Ubication":{"id":376,"created_at":"2020-02-10 14:52:57","updated_at":"2020-02-13 11:43:40","name":"SAN LUIS DE ARMENIA","code":"02220161","father_code":"022201","gmap_reference_latitude":"-0.4079476","gmap_reference_longitude":"-77.29476","acronym":""},"attach":[]},{"Ubication":{"id":377,"created_at":"2020-02-10 14:52:57","updated_at":"2020-02-13 11:43:40","name":"AGUARICO","code":"022202","father_code":"0222","gmap_reference_latitude":"-0.9836203","gmap_reference_longitude":"-76.4468434","acronym":"AGR"},"attach":[]},{"Ubication":{"id":378,"created_at":"2020-02-10 14:52:57","updated_at":"2020-02-13 11:43:40","name":"NUEVO ROCAFUERTE","code":"02220250","father_code":"022202","gmap_reference_latitude":"-0.926777","gmap_reference_longitude":"-75.4192277","acronym":""},"attach":[]},{"Ubication":{"id":379,"created_at":"2020-02-10 14:52:57","updated_at":"2020-02-13 11:43:40","name":"CAPITAN AUGUSTO RIVADENEYRA","code":"02220251","father_code":"022202","gmap_reference_latitude":"-0.5608508","gmap_reference_longitude":"-76.0248411","acronym":""},"attach":[]},{"Ubication":{"id":380,"created_at":"2020-02-10 14:52:57","updated_at":"2020-02-13 11:43:40","name":"CONONACO","code":"02220252","father_code":"022202","gmap_reference_latitude":"-1.0935029","gmap_reference_longitude":"-76.5787592","acronym":""},"attach":[]},{"Ubication":{"id":381,"created_at":"2020-02-10 14:52:57","updated_at":"2020-02-13 11:43:40","name":"SANTA MARIA DE HUIRIRIMA","code":"02220253","father_code":"022202","gmap_reference_latitude":"-0.2107854","gmap_reference_longitude":"-78.5092769","acronym":""},"attach":[]},{"Ubication":{"id":331,"created_at":"2020-02-10 14:52:57","updated_at":"2020-02-13 11:43:40","name":"PUERTO QUITO","code":"02170950","father_code":"021709","gmap_reference_latitude":"0.116667","gmap_reference_longitude":"-79.2841767","acronym":""},"attach":[]},